[
	{
		"json_featuretype" : "CSV",
		"LOCATION" : "6272 152 St",
		"NAME" : "Sullivan Park Modular Washroom",
		"FACILITY_TYPE" : "Park",
		"WEBLINK" : "",
		"FACILITY_SUBTYPE" : "",
		"FACILITYID" : 1001971491,
		"LONGITUDE" : -122.79678865726083,
		"LATITUDE" : 49.116173503152446
	},
	{
		"json_featuretype" : "CSV",
		"LOCATION" : "2239 152 ST",
		"NAME" : "White Rock Christian Academy",
		"FACILITY_TYPE" : "School",
		"WEBLINK" : "http://www.wrca.bc.ca",
		"FACILITY_SUBTYPE" : "Private",
		"FACILITYID" : 1001314171,
		"LONGITUDE" : -122.80259691364778,
		"LATITUDE" : 49.04330444765204
	},
	{
		"json_featuretype" : "CSV",
		"LOCATION" : "10183 152A ST",
		"NAME" : "Guildford Learning Centre",
		"FACILITY_TYPE" : "School",
		"WEBLINK" : "https://www.surreyschools.ca/schools/guildfordlearningcentre/Pages/default.aspx",
		"FACILITY_SUBTYPE" : "Administration",
		"FACILITYID" : 1002194587,
		"LONGITUDE" : -122.79982918087217,
		"LATITUDE" : 49.18747825870567
	},
	{
		"json_featuretype" : "CSV",
		"LOCATION" : "12878 62 AVE",
		"NAME" : "Panorama Park Elementary School",
		"FACILITY_TYPE" : "School",
		"WEBLINK" : "https://www.surreyschools.ca/schools/panoramapark/Pages/default.aspx",
		"FACILITY_SUBTYPE" : "Elementary",
		"FACILITYID" : 1001333782,
		"LONGITUDE" : -122.86578140937219,
		"LATITUDE" : 49.114718999917464
	},
	{
		"json_featuretype" : "CSV",
		"LOCATION" : "10950 126A ST",
		"NAME" : "North Surrey Sports & Ice Centre",
		"FACILITY_TYPE" : "Arena",
		"WEBLINK" : "",
		"FACILITY_SUBTYPE" : "",
		"FACILITYID" : 1002167455,
		"LONGITUDE" : -122.87050778102636,
		"LATITUDE" : 49.201721630253125
	},
	{
		"json_featuretype" : "CSV",
		"LOCATION" : "14986 98 AVE",
		"NAME" : "Bonaccord Elementary School",
		"FACILITY_TYPE" : "School",
		"WEBLINK" : "https://www.surreyschools.ca/schools/bonaccord/Pages/default.aspx",
		"FACILITY_SUBTYPE" : "Elementary",
		"FACILITYID" : 1001228900,
		"LONGITUDE" : -122.80645351716679,
		"LATITUDE" : 49.17979597647244
	},
	{
		"json_featuretype" : "CSV",
		"LOCATION" : "15024 24 AVE",
		"NAME" : "Star Of The Sea",
		"FACILITY_TYPE" : "School",
		"WEBLINK" : "http://www.staroftheseaschool.ca/",
		"FACILITY_SUBTYPE" : "Private",
		"FACILITYID" : 1001229054,
		"LONGITUDE" : -122.80601845399548,
		"LATITUDE" : 49.04482519605497
	},
	{
		"json_featuretype" : "CSV",
		"LOCATION" : "7929 152 ST",
		"NAME" : "Guildford Golf & Country Club",
		"FACILITY_TYPE" : "Golf",
		"WEBLINK" : "http://www.surrey.ca/culture-recreation/7287.aspx",
		"FACILITY_SUBTYPE" : "",
		"FACILITYID" : 1001229319,
		"LONGITUDE" : -122.80187018807383,
		"LATITUDE" : 49.14687407301965
	},
	{
		"json_featuretype" : "CSV",
		"LOCATION" : "12236 70A AVE",
		"NAME" : "Cougar Creek Elementary School",
		"FACILITY_TYPE" : "School",
		"WEBLINK" : "https://www.surreyschools.ca/schools/cougarcreek/Pages/default.aspx",
		"FACILITY_SUBTYPE" : "Elementary",
		"FACILITYID" : 1001229476,
		"LONGITUDE" : -122.88314911770823,
		"LATITUDE" : 49.1303246325218
	},
	{
		"json_featuretype" : "CSV",
		"LOCATION" : "14245 56 AVE",
		"NAME" : "RCMP Main Reception",
		"FACILITY_TYPE" : "RCMP",
		"WEBLINK" : "http://www.surrey.ca",
		"FACILITY_SUBTYPE" : "",
		"FACILITYID" : 1001222961,
		"LONGITUDE" : -122.8280917772126,
		"LATITUDE" : 49.10578826193338
	},
	{
		"json_featuretype" : "CSV",
		"LOCATION" : "2197 148 ST",
		"NAME" : "South Surrey Rotary Fieldhouse",
		"FACILITY_TYPE" : "Community Hall/Centre",
		"WEBLINK" : "http://www.clubrunner.ca/Portal/SitePages/SitePage.aspx?cid=256&pid=54609",
		"FACILITY_SUBTYPE" : "",
		"FACILITYID" : 1001222963,
		"LONGITUDE" : -122.81556891835476,
		"LATITUDE" : 49.040421791083546
	},
	{
		"json_featuretype" : "CSV",
		"LOCATION" : "2040 150 ST",
		"NAME" : "Meridian Centre",
		"FACILITY_TYPE" : "Community Hall/Centre",
		"WEBLINK" : "http://www.surrey.ca/culture-recreation/5053.aspx",
		"FACILITY_SUBTYPE" : "",
		"FACILITYID" : 1001222967,
		"LONGITUDE" : -122.80625683478502,
		"LATITUDE" : 49.03879698702208
	},
	{
		"json_featuretype" : "CSV",
		"LOCATION" : "14601 20 AVE",
		"NAME" : "South Surrey Recreation & Arts Centre",
		"FACILITY_TYPE" : "Recreation Centre",
		"WEBLINK" : "http://www.surrey.ca/culture-recreation/1918.aspx",
		"FACILITY_SUBTYPE" : "",
		"FACILITYID" : 1001222968,
		"LONGITUDE" : -122.81854544450881,
		"LATITUDE" : 49.0399512164424
	},
	{
		"json_featuretype" : "CSV",
		"LOCATION" : "9353 160 ST",
		"NAME" : "Hemlock Works Yard",
		"FACILITY_TYPE" : "Municipal",
		"WEBLINK" : "http://www.surrey.ca/city-government/717.aspx",
		"FACILITY_SUBTYPE" : "",
		"FACILITYID" : 1001222970,
		"LONGITUDE" : -122.77943530304574,
		"LATITUDE" : 49.17263256602985
	},
	{
		"json_featuretype" : "CSV",
		"LOCATION" : "6060 176 ST ",
		"NAME" : "Alice McKay",
		"FACILITY_TYPE" : "Community Hall/Centre",
		"WEBLINK" : "http://www.cloverdalerodeo.com/facilities-and-events/",
		"FACILITY_SUBTYPE" : "",
		"FACILITYID" : 1001222972,
		"LONGITUDE" : -122.73419153763012,
		"LATITUDE" : 49.11279107989563
	},
	{
		"json_featuretype" : "CSV",
		"LOCATION" : "6220 184 ST",
		"NAME" : "Don Christian Recreation Centre",
		"FACILITY_TYPE" : "Recreation Centre",
		"WEBLINK" : "http://www.surrey.ca/culture-recreation/5035.aspx",
		"FACILITY_SUBTYPE" : "",
		"FACILITYID" : 1001222973,
		"LONGITUDE" : -122.71139127833149,
		"LATITUDE" : 49.11548070029082
	},
	{
		"json_featuretype" : "CSV",
		"LOCATION" : "6050 176 ST",
		"NAME" : "Stetson Bowl",
		"FACILITY_TYPE" : "Attraction",
		"WEBLINK" : "http://www.cloverdalerodeo.com/our-facilities/stetson-bowl/",
		"FACILITY_SUBTYPE" : "",
		"FACILITYID" : 1001222976,
		"LONGITUDE" : -122.72684820832825,
		"LATITUDE" : 49.115428378627136
	},
	{
		"json_featuretype" : "CSV",
		"LOCATION" : "15996 84 AVE",
		"NAME" : "Fleetwood Community Centre",
		"FACILITY_TYPE" : "Community Hall/Centre",
		"WEBLINK" : "http://www.surrey.ca/culture-recreation/1858.aspx",
		"FACILITY_SUBTYPE" : "",
		"FACILITYID" : 1001222980,
		"LONGITUDE" : -122.77977976598035,
		"LATITUDE" : 49.15500525437515
	},
	{
		"json_featuretype" : "CSV",
		"LOCATION" : "16900 64 AVE",
		"NAME" : "Cloverdale Athletic Park Pavilion",
		"FACILITY_TYPE" : "Park",
		"WEBLINK" : "http://www.surrey.ca/culture-recreation/2014.aspx",
		"FACILITY_SUBTYPE" : "",
		"FACILITYID" : 1001222981,
		"LONGITUDE" : -122.75428625044988,
		"LATITUDE" : 49.117108030879685
	},
	{
		"json_featuretype" : "CSV",
		"LOCATION" : "16824 32 AVE",
		"NAME" : "Kensington Prairie Community Centre",
		"FACILITY_TYPE" : "",
		"WEBLINK" : "",
		"FACILITY_SUBTYPE" : "",
		"FACILITYID" : 1001222987,
		"LONGITUDE" : -122.7556266201199,
		"LATITUDE" : 49.05994103462489
	},
	{
		"json_featuretype" : "CSV",
		"LOCATION" : "6050 176 ST",
		"NAME" : "Fraser Downs Racetrack & Casino",
		"FACILITY_TYPE" : "Attraction",
		"WEBLINK" : "http://www.fraserdowns.com",
		"FACILITY_SUBTYPE" : "",
		"FACILITYID" : 1001222988,
		"LONGITUDE" : -122.73045714588359,
		"LATITUDE" : 49.11224857460003
	},
	{
		"json_featuretype" : "CSV",
		"LOCATION" : "16555 FRASER HWY",
		"NAME" : "Surrey Sports & Leisure Complex",
		"FACILITY_TYPE" : "Recreation Centre",
		"WEBLINK" : "http://www.surrey.ca/culture-recreation/1888.aspx",
		"FACILITY_SUBTYPE" : "",
		"FACILITYID" : 1001222990,
		"LONGITUDE" : -122.76449056659649,
		"LATITUDE" : 49.15290265049899
	},
	{
		"json_featuretype" : "CSV",
		"LOCATION" : "6050 176 ST",
		"NAME" : "Shannon Hall",
		"FACILITY_TYPE" : "Community Hall/Centre",
		"WEBLINK" : "http://www.cloverdalerodeo.com/our-facilities/shannon-hall/",
		"FACILITY_SUBTYPE" : "",
		"FACILITYID" : 1001222992,
		"LONGITUDE" : -122.7341244980544,
		"LATITUDE" : 49.1123787397713
	},
	{
		"json_featuretype" : "CSV",
		"LOCATION" : "6150 176 ST",
		"NAME" : "Cloverdale Curling Rink",
		"FACILITY_TYPE" : "Arena",
		"WEBLINK" : "http://www.cloverdalecurlingclub.ca/",
		"FACILITY_SUBTYPE" : "",
		"FACILITYID" : 1001222993,
		"LONGITUDE" : -122.73434099469635,
		"LATITUDE" : 49.114267872107874
	},
	{
		"json_featuretype" : "CSV",
		"LOCATION" : "6090 176 ST",
		"NAME" : "Cloverdale Ice Arena",
		"FACILITY_TYPE" : "Arena",
		"WEBLINK" : "http://www.surrey.ca/culture-recreation/5031.aspx",
		"FACILITY_SUBTYPE" : "",
		"FACILITYID" : 1001222994,
		"LONGITUDE" : -122.7339437318998,
		"LATITUDE" : 49.11324151580786
	},
	{
		"json_featuretype" : "CSV",
		"LOCATION" : "18513 70 AVE",
		"NAME" : "Clayton Community Hall",
		"FACILITY_TYPE" : "Community Hall/Centre",
		"WEBLINK" : "http://www.surrey.ca/culture-recreation/13137.aspx",
		"FACILITY_SUBTYPE" : "",
		"FACILITYID" : 1001222995,
		"LONGITUDE" : -122.70913553087965,
		"LATITUDE" : 49.13004954288146
	},
	{
		"json_featuretype" : "CSV",
		"LOCATION" : "1379 128 ST",
		"NAME" : "Kwomais Sanford Hall",
		"FACILITY_TYPE" : "Park",
		"WEBLINK" : "http://www.surrey.ca/culture-recreation/6177.aspx",
		"FACILITY_SUBTYPE" : "",
		"FACILITYID" : 1001222997,
		"LONGITUDE" : -122.86878572831267,
		"LATITUDE" : 49.02672850352611
	},
	{
		"json_featuretype" : "CSV",
		"LOCATION" : "12160 BEECHER ST",
		"NAME" : "Beecher Place",
		"FACILITY_TYPE" : "Community Hall/Centre",
		"WEBLINK" : "http://www.alexhouse.net/beecher-place",
		"FACILITY_SUBTYPE" : "",
		"FACILITYID" : 1001222999,
		"LONGITUDE" : -122.88484853334164,
		"LATITUDE" : 49.05194009511149
	},
	{
		"json_featuretype" : "CSV",
		"LOCATION" : "12854 17 AVE",
		"NAME" : "Ocean Park Library",
		"FACILITY_TYPE" : "Library",
		"WEBLINK" : "http://www.surreylibraries.ca/location-hours/4686.aspx",
		"FACILITY_SUBTYPE" : "",
		"FACILITYID" : 1001223001,
		"LONGITUDE" : -122.86611145544185,
		"LATITUDE" : 49.0325354217965
	},
	{
		"json_featuretype" : "CSV",
		"LOCATION" : "13723 CRESCENT RD",
		"NAME" : "The Hooser Weaving Centre",
		"FACILITY_TYPE" : "Attraction",
		"WEBLINK" : "http://www.surrey.ca/youth/4751.aspx",
		"FACILITY_SUBTYPE" : "",
		"FACILITYID" : 1001223003,
		"LONGITUDE" : -122.84120166747346,
		"LATITUDE" : 49.065126908956174
	},
	{
		"json_featuretype" : "CSV",
		"LOCATION" : "13723 CRESCENT RD",
		"NAME" : "Ward's Marina",
		"FACILITY_TYPE" : "Other Recreation",
		"WEBLINK" : "http://cruisingundersail.com/wp/?page_id=965",
		"FACILITY_SUBTYPE" : "",
		"FACILITYID" : 1001223004,
		"LONGITUDE" : -122.84254914334248,
		"LATITUDE" : 49.06563253354956
	},
	{
		"json_featuretype" : "CSV",
		"LOCATION" : "13723 CRESCENT RD",
		"NAME" : "Elg Hrtg Prk Stwrt Bunkhouse",
		"FACILITY_TYPE" : "Park",
		"WEBLINK" : "http://www.surrey.ca/culture-recreation/2014.aspx",
		"FACILITY_SUBTYPE" : "",
		"FACILITYID" : 1001223006,
		"LONGITUDE" : -122.84303001921052,
		"LATITUDE" : 49.064596511159145
	},
	{
		"json_featuretype" : "CSV",
		"LOCATION" : "13730 72 AVE",
		"NAME" : "Newton Recreation Centre",
		"FACILITY_TYPE" : "Recreation Centre",
		"WEBLINK" : "http://www.surrey.ca/culture-recreation/5048.aspx",
		"FACILITY_SUBTYPE" : "",
		"FACILITYID" : 1001223008,
		"LONGITUDE" : -122.84206511159474,
		"LATITUDE" : 49.132880216769486
	},
	{
		"json_featuretype" : "CSV",
		"LOCATION" : "7120 136B ST",
		"NAME" : "Newton Arena",
		"FACILITY_TYPE" : "Arena",
		"WEBLINK" : "http://www.surrey.ca/culture-recreation/7325.aspx",
		"FACILITY_SUBTYPE" : "",
		"FACILITYID" : 1001223009,
		"LONGITUDE" : -122.84205241380226,
		"LATITUDE" : 49.13209975096884
	},
	{
		"json_featuretype" : "CSV",
		"LOCATION" : "14225 GREEN TIMBERS WAY",
		"NAME" : "Surrey Nature Centre Admin Building",
		"FACILITY_TYPE" : "Attraction",
		"WEBLINK" : "http://www.surrey.ca/culture-recreation/2311.aspx",
		"FACILITY_SUBTYPE" : "",
		"FACILITYID" : 1001223011,
		"LONGITUDE" : -122.83034834231223,
		"LATITUDE" : 49.17886900118758
	},
	{
		"json_featuretype" : "CSV",
		"LOCATION" : "14225 GREEN TIMBERS WAY",
		"NAME" : "Surrey Nature Centre",
		"FACILITY_TYPE" : "Attraction",
		"WEBLINK" : "http://www.surrey.ca/culture-recreation/2311.aspx",
		"FACILITY_SUBTYPE" : "",
		"FACILITYID" : 1001223012,
		"LONGITUDE" : -122.83033498254005,
		"LATITUDE" : 49.1792241211681
	},
	{
		"json_featuretype" : "CSV",
		"LOCATION" : "3530 144 ST",
		"NAME" : "Elgin Centre",
		"FACILITY_TYPE" : "Other Recreation",
		"WEBLINK" : "http://www.surrey.ca/plans-strategies/3375.aspx",
		"FACILITY_SUBTYPE" : "",
		"FACILITYID" : 1001223014,
		"LONGITUDE" : -122.82229205580397,
		"LATITUDE" : 49.066126482373335
	},
	{
		"json_featuretype" : "CSV",
		"LOCATION" : "2201 148 ST",
		"NAME" : "South Surrey Ice Arena",
		"FACILITY_TYPE" : "Arena",
		"WEBLINK" : "http://www.surrey.ca/culture-recreation/1919.aspx",
		"FACILITY_SUBTYPE" : "",
		"FACILITYID" : 1001223016,
		"LONGITUDE" : -122.81560555733796,
		"LATITUDE" : 49.041547929496296
	},
	{
		"json_featuretype" : "CSV",
		"LOCATION" : "10277 CITY PKWY",
		"NAME" : "City Centre CRU Washroom",
		"FACILITY_TYPE" : "Other",
		"WEBLINK" : "",
		"FACILITY_SUBTYPE" : "",
		"FACILITYID" : 1001223021,
		"LONGITUDE" : -122.84792379968404,
		"LATITUDE" : 49.18941431168471
	},
	{
		"json_featuretype" : "CSV",
		"LOCATION" : "13775 70 AVE",
		"NAME" : "Newton Seniors Centre",
		"FACILITY_TYPE" : "Seniors Centre",
		"WEBLINK" : "http://www.surrey.ca/culture-recreation/1777.aspx",
		"FACILITY_SUBTYPE" : "",
		"FACILITYID" : 1001223022,
		"LONGITUDE" : -122.84094007304753,
		"LATITUDE" : 49.13045392975618
	},
	{
		"json_featuretype" : "CSV",
		"LOCATION" : "14655 17 AVE",
		"NAME" : "South Surrey Indoor Pool",
		"FACILITY_TYPE" : "Swimming Pool",
		"WEBLINK" : "http://www.surrey.ca/culture-recreation/1755.aspx",
		"FACILITY_SUBTYPE" : "",
		"FACILITYID" : 1001223023,
		"LONGITUDE" : -122.81579328790953,
		"LATITUDE" : 49.0333743609304
	},
	{
		"json_featuretype" : "CSV",
		"LOCATION" : "10395 148 ST",
		"NAME" : "Guildford RCMP Sub-Station",
		"FACILITY_TYPE" : "RCMP",
		"WEBLINK" : "http://www.surreyrcmp.ca",
		"FACILITY_SUBTYPE" : "",
		"FACILITYID" : 1001223024,
		"LONGITUDE" : -122.81302531978329,
		"LATITUDE" : 49.191213609704405
	},
	{
		"json_featuretype" : "CSV",
		"LOCATION" : "14355 57 AVE",
		"NAME" : "RCMP Headquarters",
		"FACILITY_TYPE" : "RCMP",
		"WEBLINK" : "http://www.surreyrcmp.ca",
		"FACILITY_SUBTYPE" : "",
		"FACILITYID" : 1001223025,
		"LONGITUDE" : -122.82432904676745,
		"LATITUDE" : 49.10715569448373
	},
	{
		"json_featuretype" : "CSV",
		"LOCATION" : "14586 108 AVE",
		"NAME" : "Fire Hall # 04",
		"FACILITY_TYPE" : "Fire",
		"WEBLINK" : "http://www.surrey.ca/city-services/4696.aspx",
		"FACILITY_SUBTYPE" : "",
		"FACILITYID" : 1001223026,
		"LONGITUDE" : -122.81791936760915,
		"LATITUDE" : 49.19843343420247
	},
	{
		"json_featuretype" : "CSV",
		"LOCATION" : "13723 CRESCENT RD",
		"NAME" : "EHP - Stewart Hall",
		"FACILITY_TYPE" : "Other Recreation",
		"WEBLINK" : "http://www.surrey.ca/culture-recreation/2875.aspx",
		"FACILITY_SUBTYPE" : "",
		"FACILITYID" : 1001223033,
		"LONGITUDE" : -122.84247421559074,
		"LATITUDE" : 49.06496052999594
	},
	{
		"json_featuretype" : "CSV",
		"LOCATION" : "17763 62 Ave",
		"NAME" : "Cloverdale Fairgrounds Agriplex Bldg",
		"FACILITY_TYPE" : "Other",
		"WEBLINK" : "http://www.cloverdalerodeo.com/contact-us/",
		"FACILITY_SUBTYPE" : "",
		"FACILITYID" : 1001223045,
		"LONGITUDE" : -122.73015244909855,
		"LATITUDE" : 49.116240793079726
	},
	{
		"json_featuretype" : "CSV",
		"LOCATION" : "2016 176 ST",
		"NAME" : "Fire Hall # 14",
		"FACILITY_TYPE" : "Fire",
		"WEBLINK" : "http://www.surrey.ca/city-services/4696.aspx",
		"FACILITY_SUBTYPE" : "",
		"FACILITYID" : 1001223046,
		"LONGITUDE" : -122.73479849847588,
		"LATITUDE" : 49.0387588036935
	},
	{
		"json_featuretype" : "CSV",
		"LOCATION" : "10277 148 ST",
		"NAME" : "Hjorth Road Pool",
		"FACILITY_TYPE" : "Swimming Pool",
		"WEBLINK" : "http://www.surrey.ca/culture-recreation/14046.aspx",
		"FACILITY_SUBTYPE" : "",
		"FACILITYID" : 1001223056,
		"LONGITUDE" : -122.81296727471036,
		"LATITUDE" : 49.189323500866685
	},
	{
		"json_featuretype" : "CSV",
		"LOCATION" : "17710 56A AVE",
		"NAME" : "Museum of Surrey",
		"FACILITY_TYPE" : "Attraction",
		"WEBLINK" : "http://www.surrey.ca/culture-recreation/2372.aspx",
		"FACILITY_SUBTYPE" : "",
		"FACILITYID" : 1001222908,
		"LONGITUDE" : -122.73224939887149,
		"LATITUDE" : 49.10459322290084
	},
	{
		"json_featuretype" : "CSV",
		"LOCATION" : "17572 57 AVE",
		"NAME" : "Fire Hall # 08",
		"FACILITY_TYPE" : "Fire",
		"WEBLINK" : "http://www.surrey.ca/city-services/4696.aspx",
		"FACILITY_SUBTYPE" : "",
		"FACILITYID" : 1001222910,
		"LONGITUDE" : -122.7359832456441,
		"LATITUDE" : 49.105740679681986
	},
	{
		"json_featuretype" : "CSV",
		"LOCATION" : "18918 88 AVE",
		"NAME" : "Port Kells Community Hall",
		"FACILITY_TYPE" : "Community Hall/Centre",
		"WEBLINK" : "http://www.portkellscommunity.com/wp/",
		"FACILITY_SUBTYPE" : "",
		"FACILITYID" : 1001222912,
		"LONGITUDE" : -122.69853527812639,
		"LATITUDE" : 49.162219291520316
	},
	{
		"json_featuretype" : "CSV",
		"LOCATION" : "7399 122 ST",
		"NAME" : "Strawberry Hill Library",
		"FACILITY_TYPE" : "Library",
		"WEBLINK" : "http://www.surreylibraries.ca/location-hours/4690.aspx",
		"FACILITY_SUBTYPE" : "",
		"FACILITYID" : 1001222913,
		"LONGITUDE" : -122.8851428200376,
		"LATITUDE" : 49.13748573392215
	},
	{
		"json_featuretype" : "CSV",
		"LOCATION" : "12855 60 AVE",
		"NAME" : "Fire Hall # 11",
		"FACILITY_TYPE" : "Fire",
		"WEBLINK" : "http://www.surrey.ca/city-services/4696.aspx",
		"FACILITY_SUBTYPE" : "",
		"FACILITYID" : 1001222915,
		"LONGITUDE" : -122.86605568411765,
		"LATITUDE" : 49.11211177514546
	},
	{
		"json_featuretype" : "CSV",
		"LOCATION" : "14901 64 AVE",
		"NAME" : "Fire Hall # 09",
		"FACILITY_TYPE" : "Fire",
		"WEBLINK" : "http://www.surrey.ca/city-services/4696.aspx",
		"FACILITY_SUBTYPE" : "",
		"FACILITYID" : 1001223073,
		"LONGITUDE" : -122.80999436995003,
		"LATITUDE" : 49.11958384363195
	},
	{
		"json_featuretype" : "CSV",
		"LOCATION" : "19340 88 AVE",
		"NAME" : "Port Kells Park Washroom",
		"FACILITY_TYPE" : "Park",
		"WEBLINK" : "http://www.surrey.ca/culture-recreation/2140.aspx",
		"FACILITY_SUBTYPE" : "",
		"FACILITYID" : 1001223077,
		"LONGITUDE" : -122.68648355992646,
		"LATITUDE" : 49.16117776722324
	},
	{
		"json_featuretype" : "CSV",
		"LOCATION" : "17835 62 Ave",
		"NAME" : "Exhibition Grounds Show Barn",
		"FACILITY_TYPE" : "Other",
		"WEBLINK" : "http://www.cloverdalerodeo.com/our-facilities/show-barn/",
		"FACILITY_SUBTYPE" : "",
		"FACILITYID" : 1001223080,
		"LONGITUDE" : -122.72920885365721,
		"LATITUDE" : 49.11612759990726
	},
	{
		"json_featuretype" : "CSV",
		"LOCATION" : "5730 176A ST",
		"NAME" : "Cloverdale RCMP Community Policing",
		"FACILITY_TYPE" : "RCMP",
		"WEBLINK" : "http://www.surreyrcmp.ca",
		"FACILITY_SUBTYPE" : "",
		"FACILITYID" : 1001223081,
		"LONGITUDE" : -122.73343412033363,
		"LATITUDE" : 49.106606285820504
	},
	{
		"json_featuretype" : "CSV",
		"LOCATION" : "10350 UNIVERSITY DR",
		"NAME" : "City Centre Library",
		"FACILITY_TYPE" : "Library",
		"WEBLINK" : "http://www.surreylibraries.ca/location-hours/4682.aspx",
		"FACILITY_SUBTYPE" : "",
		"FACILITYID" : 1001223090,
		"LONGITUDE" : -122.84939518721362,
		"LATITUDE" : 49.19065527947007
	},
	{
		"json_featuretype" : "CSV",
		"LOCATION" : "10720 KING GEORGE BLVD",
		"NAME" : "Surrey City Centre RCMP",
		"FACILITY_TYPE" : "RCMP",
		"WEBLINK" : "http://www.surreyrcmp.ca",
		"FACILITY_SUBTYPE" : "",
		"FACILITYID" : 1001223091,
		"LONGITUDE" : -122.84474523018189,
		"LATITUDE" : 49.19734606103816
	},
	{
		"json_featuretype" : "CSV",
		"LOCATION" : "7365 128 ST",
		"NAME" : "Newton Athletic Pavilion",
		"FACILITY_TYPE" : "Other Recreation",
		"WEBLINK" : "http://www.surrey.ca/culture-recreation/2059.aspx",
		"FACILITY_SUBTYPE" : "",
		"FACILITYID" : 1001222916,
		"LONGITUDE" : -122.86979587836225,
		"LATITUDE" : 49.137350548477514
	},
	{
		"json_featuretype" : "CSV",
		"LOCATION" : "13530 72 AVE",
		"NAME" : "Newton Cultural Centre",
		"FACILITY_TYPE" : "Community Hall/Centre",
		"WEBLINK" : "http://www.artscouncilofsurrey.ca/html/aboutus.htm",
		"FACILITY_SUBTYPE" : "",
		"FACILITYID" : 1001222917,
		"LONGITUDE" : -122.84710163881103,
		"LATITUDE" : 49.133234116876686
	},
	{
		"json_featuretype" : "CSV",
		"LOCATION" : "13458 107A AVE",
		"NAME" : "Chuck Bailey Recreation Centre",
		"FACILITY_TYPE" : "Recreation Centre",
		"WEBLINK" : "http://www.surrey.ca/culture-recreation/1914.aspx",
		"FACILITY_SUBTYPE" : "",
		"FACILITYID" : 1001222918,
		"LONGITUDE" : -122.84927999279978,
		"LATITUDE" : 49.19687767664901
	},
	{
		"json_featuretype" : "CSV",
		"LOCATION" : "1371 128 ST",
		"NAME" : "Kwomais Point Lodge",
		"FACILITY_TYPE" : "Park",
		"WEBLINK" : "http://www.surrey.ca/culture-recreation/6177.aspx",
		"FACILITY_SUBTYPE" : "",
		"FACILITYID" : 1001222919,
		"LONGITUDE" : -122.86844703269556,
		"LATITUDE" : 49.026667590323584
	},
	{
		"json_featuretype" : "CSV",
		"LOCATION" : "13723 CRESCENT RD",
		"NAME" : "EHP - Caretakers Residence",
		"FACILITY_TYPE" : "Other",
		"WEBLINK" : "http://www.surrey.ca/city-services/481.aspx",
		"FACILITY_SUBTYPE" : "",
		"FACILITYID" : 1001222923,
		"LONGITUDE" : -122.84264592442447,
		"LATITUDE" : 49.06525954828066
	},
	{
		"json_featuretype" : "CSV",
		"LOCATION" : "13723 CRESCENT RD",
		"NAME" : "Historic Stewart Farm",
		"FACILITY_TYPE" : "Attraction",
		"WEBLINK" : "http://www.surrey.ca/culture-recreation/2875.aspx",
		"FACILITY_SUBTYPE" : "",
		"FACILITYID" : 1001222925,
		"LONGITUDE" : -122.84200906496108,
		"LATITUDE" : 49.065085345526064
	},
	{
		"json_featuretype" : "CSV",
		"LOCATION" : "10275 CITY PKWY",
		"NAME" : "North Surrey Recreation Centre",
		"FACILITY_TYPE" : "Recreation Centre",
		"WEBLINK" : "http://www.surrey.ca/culture-recreation/5048.aspx",
		"FACILITY_SUBTYPE" : "",
		"FACILITYID" : 1001222926,
		"LONGITUDE" : -122.848820932405,
		"LATITUDE" : 49.18957233069286
	},
	{
		"json_featuretype" : "CSV",
		"LOCATION" : "14250 CRESCENT RD",
		"NAME" : "Elgin Community Hall",
		"FACILITY_TYPE" : "Community Hall/Centre",
		"WEBLINK" : "http://www.surrey.ca/culture-recreation/6054.aspx",
		"FACILITY_SUBTYPE" : "",
		"FACILITYID" : 1001222927,
		"LONGITUDE" : -122.82742752970255,
		"LATITUDE" : 49.0668711979691
	},
	{
		"json_featuretype" : "CSV",
		"LOCATION" : "11475 126A ST",
		"NAME" : "Bridgeview Community Centre",
		"FACILITY_TYPE" : "Community Hall/Centre",
		"WEBLINK" : "http://www.surrey.ca/culture-recreation/11534.aspx",
		"FACILITY_SUBTYPE" : "",
		"FACILITYID" : 1001222928,
		"LONGITUDE" : -122.87171477130532,
		"LATITUDE" : 49.2112180546691
	},
	{
		"json_featuretype" : "CSV",
		"LOCATION" : "6188 176 ST",
		"NAME" : "Cloverdale Recreation Centre",
		"FACILITY_TYPE" : "Recreation Centre",
		"WEBLINK" : "http://www.surrey.ca/culture-recreation/8524.aspx",
		"FACILITY_SUBTYPE" : "",
		"FACILITYID" : 1001356175,
		"LONGITUDE" : -122.7340582770848,
		"LATITUDE" : 49.115200654510105
	},
	{
		"json_featuretype" : "CSV",
		"LOCATION" : "17651 56 AVE",
		"NAME" : "Surrey Archives",
		"FACILITY_TYPE" : "Attraction",
		"WEBLINK" : "http://www.surrey.ca/culture-recreation/2394.aspx",
		"FACILITY_SUBTYPE" : "",
		"FACILITYID" : 1001356182,
		"LONGITUDE" : -122.73314707624823,
		"LATITUDE" : 49.10447417288623
	},
	{
		"json_featuretype" : "CSV",
		"LOCATION" : "15848 97A AVE",
		"NAME" : "North Surrey Community Park Washroom",
		"FACILITY_TYPE" : "Park",
		"WEBLINK" : "http://www.surrey.ca/culture-recreation/2155.aspx",
		"FACILITY_SUBTYPE" : "",
		"FACILITYID" : 1001356194,
		"LONGITUDE" : -122.78276590199985,
		"LATITUDE" : 49.17937348660786
	},
	{
		"json_featuretype" : "CSV",
		"LOCATION" : "13795 70 AVE",
		"NAME" : "Newton Library",
		"FACILITY_TYPE" : "Library",
		"WEBLINK" : "http://www.surreylibraries.ca/location-hours/4670.aspx",
		"FACILITY_SUBTYPE" : "",
		"FACILITYID" : 1001222933,
		"LONGITUDE" : -122.8397031530448,
		"LATITUDE" : 49.130294500288734
	},
	{
		"json_featuretype" : "CSV",
		"LOCATION" : "7278 132 ST",
		"NAME" : "Fire Hall # 10",
		"FACILITY_TYPE" : "Fire",
		"WEBLINK" : "http://www.surrey.ca/city-services/4696.aspx",
		"FACILITY_SUBTYPE" : "",
		"FACILITYID" : 1001222935,
		"LONGITUDE" : -122.85610495369666,
		"LATITUDE" : 49.13516956597054
	},
	{
		"json_featuretype" : "CSV",
		"LOCATION" : "8767 132 ST",
		"NAME" : "Fire Hall # 01",
		"FACILITY_TYPE" : "Fire",
		"WEBLINK" : "http://www.surrey.ca/city-services/4696.aspx",
		"FACILITY_SUBTYPE" : "",
		"FACILITYID" : 1001222936,
		"LONGITUDE" : -122.85759908311375,
		"LATITUDE" : 49.16224682266658
	},
	{
		"json_featuretype" : "CSV",
		"LOCATION" : "15105 105 AVE",
		"NAME" : "Guildford Recreation Centre",
		"FACILITY_TYPE" : "Recreation Centre",
		"WEBLINK" : "http://www.surrey.ca/culture-recreation/1876.aspx",
		"FACILITY_SUBTYPE" : "",
		"FACILITYID" : 1001222939,
		"LONGITUDE" : -122.80257913538938,
		"LATITUDE" : 49.193818601649916
	},
	{
		"json_featuretype" : "CSV",
		"LOCATION" : "2610 128 ST",
		"NAME" : "Fire Hall # 12",
		"FACILITY_TYPE" : "Fire",
		"WEBLINK" : "http://www.surrey.ca/city-services/4696.aspx",
		"FACILITY_SUBTYPE" : "",
		"FACILITYID" : 1001222942,
		"LONGITUDE" : -122.86690520692348,
		"LATITUDE" : 49.049679782595156
	},
	{
		"json_featuretype" : "CSV",
		"LOCATION" : "13079 104 AVE",
		"NAME" : "Fire Hall # 02",
		"FACILITY_TYPE" : "Fire",
		"WEBLINK" : "http://www.surrey.ca/city-services/4696.aspx",
		"FACILITY_SUBTYPE" : "",
		"FACILITYID" : 1001222943,
		"LONGITUDE" : -122.86025930197657,
		"LATITUDE" : 49.19199840699278
	},
	{
		"json_featuretype" : "CSV",
		"LOCATION" : "7235 137 ST",
		"NAME" : "Newton RCMP Community Policing Station District 3",
		"FACILITY_TYPE" : "RCMP",
		"WEBLINK" : "http://www.surreyrcmp.ca",
		"FACILITY_SUBTYPE" : "",
		"FACILITYID" : 1001222945,
		"LONGITUDE" : -122.84328697196737,
		"LATITUDE" : 49.1342708242182
	},
	{
		"json_featuretype" : "CSV",
		"LOCATION" : "14255 56 AVE",
		"NAME" : "North Annex",
		"FACILITY_TYPE" : "Municipal",
		"WEBLINK" : "http://www.surrey.ca",
		"FACILITY_SUBTYPE" : "",
		"FACILITYID" : 1001222947,
		"LONGITUDE" : -122.82736830590332,
		"LATITUDE" : 49.10658105452978
	},
	{
		"json_featuretype" : "CSV",
		"LOCATION" : "14340 57 AVE",
		"NAME" : "Provincial Court",
		"FACILITY_TYPE" : "Justice",
		"WEBLINK" : "http://www.provincialcourt.bc.ca/court-location/surrey",
		"FACILITY_SUBTYPE" : "",
		"FACILITYID" : 1001356200,
		"LONGITUDE" : -122.82490910251525,
		"LATITUDE" : 49.10574395391522
	},
	{
		"json_featuretype" : "CSV",
		"LOCATION" : "10662 148 ST",
		"NAME" : "Holly Pool",
		"FACILITY_TYPE" : "Swimming Pool",
		"WEBLINK" : "http://www.surrey.ca/culture-recreation/14047.aspx",
		"FACILITY_SUBTYPE" : "",
		"FACILITYID" : 1001222948,
		"LONGITUDE" : -122.81178540443977,
		"LATITUDE" : 49.19637384512822
	},
	{
		"json_featuretype" : "CSV",
		"LOCATION" : "15155 18 AVE",
		"NAME" : "Fire Hall # 13",
		"FACILITY_TYPE" : "Fire",
		"WEBLINK" : "http://www.surrey.ca/city-services/4696.aspx",
		"FACILITY_SUBTYPE" : "",
		"FACILITYID" : 1001222949,
		"LONGITUDE" : -122.8020847615214,
		"LATITUDE" : 49.03505954635487
	},
	{
		"json_featuretype" : "CSV",
		"LOCATION" : "15329 32 AVE",
		"NAME" : "Fire Hall # 17",
		"FACILITY_TYPE" : "Fire",
		"WEBLINK" : "http://www.surrey.ca/city-services/4696.aspx",
		"FACILITY_SUBTYPE" : "",
		"FACILITYID" : 1001222950,
		"LONGITUDE" : -122.79742859239302,
		"LATITUDE" : 49.06125569622509
	},
	{
		"json_featuretype" : "CSV",
		"LOCATION" : "9049 152 ST",
		"NAME" : "Fire Hall # 06",
		"FACILITY_TYPE" : "Fire",
		"WEBLINK" : "http://www.surrey.ca/city-services/4696.aspx",
		"FACILITY_SUBTYPE" : "",
		"FACILITYID" : 1001222951,
		"LONGITUDE" : -122.80196565203941,
		"LATITUDE" : 49.1672460294094
	},
	{
		"json_featuretype" : "CSV",
		"LOCATION" : "18922 88 AVE",
		"NAME" : "Fire Hall # 07",
		"FACILITY_TYPE" : "Fire",
		"WEBLINK" : "http://www.surrey.ca/city-services/4696.aspx",
		"FACILITY_SUBTYPE" : "",
		"FACILITYID" : 1001222952,
		"LONGITUDE" : -122.69811266973552,
		"LATITUDE" : 49.162563671579264
	},
	{
		"json_featuretype" : "CSV",
		"LOCATION" : "10042 176 ST",
		"NAME" : "Fire Hall # 05",
		"FACILITY_TYPE" : "Fire",
		"WEBLINK" : "http://www.surrey.ca/city-services/4696.aspx",
		"FACILITY_SUBTYPE" : "",
		"FACILITYID" : 1001222953,
		"LONGITUDE" : -122.73384025872247,
		"LATITUDE" : 49.18484754401504
	},
	{
		"json_featuretype" : "CSV",
		"LOCATION" : "13750 88 AVE",
		"NAME" : "Surrey Arts Centre",
		"FACILITY_TYPE" : "Attraction",
		"WEBLINK" : "http://www.surrey.ca/culture-recreation/1619.aspx",
		"FACILITY_SUBTYPE" : "",
		"FACILITYID" : 1001222954,
		"LONGITUDE" : -122.84204161107084,
		"LATITUDE" : 49.16230452875735
	},
	{
		"json_featuretype" : "CSV",
		"LOCATION" : "10588 160 ST",
		"NAME" : "Fraser Heights Recreation Centre",
		"FACILITY_TYPE" : "Recreation Centre",
		"WEBLINK" : "http://www.surrey.ca/culture-recreation/1928.aspx",
		"FACILITY_SUBTYPE" : "",
		"FACILITYID" : 1001222955,
		"LONGITUDE" : -122.77725013919574,
		"LATITUDE" : 49.195071603038215
	},
	{
		"json_featuretype" : "CSV",
		"LOCATION" : "8091 164 ST",
		"NAME" : "Fire Hall # 18",
		"FACILITY_TYPE" : "Fire",
		"WEBLINK" : "http://www.surrey.ca/city-services/4696.aspx",
		"FACILITY_SUBTYPE" : "",
		"FACILITYID" : 1001222956,
		"LONGITUDE" : -122.76811945350391,
		"LATITUDE" : 49.14989105503547
	},
	{
		"json_featuretype" : "CSV",
		"LOCATION" : "18915 64 AVE",
		"NAME" : "Fire Hall # 15",
		"FACILITY_TYPE" : "Fire",
		"WEBLINK" : "http://www.surrey.ca/city-services/4696.aspx",
		"FACILITY_SUBTYPE" : "",
		"FACILITYID" : 1001222957,
		"LONGITUDE" : -122.69880616176266,
		"LATITUDE" : 49.119336312409494
	},
	{
		"json_featuretype" : "CSV",
		"LOCATION" : "18885 88 AVE",
		"NAME" : "Port Kells Library",
		"FACILITY_TYPE" : "Library",
		"WEBLINK" : "http://www.surreylibraries.ca/location-hours/4688.aspx",
		"FACILITY_SUBTYPE" : "",
		"FACILITYID" : 1001222958,
		"LONGITUDE" : -122.69966553352621,
		"LATITUDE" : 49.163075855964514
	},
	{
		"json_featuretype" : "CSV",
		"LOCATION" : "13750 88 AVE",
		"NAME" : "Bear Creek Pavilion",
		"FACILITY_TYPE" : "Other Recreation",
		"WEBLINK" : "http://www.surrey.ca/culture-recreation/1903.aspx",
		"FACILITY_SUBTYPE" : "",
		"FACILITYID" : 1001222960,
		"LONGITUDE" : -122.84255251158602,
		"LATITUDE" : 49.16135176349816
	},
	{
		"json_featuretype" : "CSV",
		"LOCATION" : "3500 MORGAN CREEK WAY",
		"NAME" : "Morgan Creek Golf Course",
		"FACILITY_TYPE" : "Golf",
		"WEBLINK" : "http://www.surrey.ca/culture-recreation/7287.aspx",
		"FACILITY_SUBTYPE" : "",
		"FACILITYID" : 1001232053,
		"LONGITUDE" : -122.78131964456108,
		"LATITUDE" : 49.064605439035496
	},
	{
		"json_featuretype" : "CSV",
		"LOCATION" : "6082 142 ST",
		"NAME" : "Woodward Hill Elementary School",
		"FACILITY_TYPE" : "School",
		"WEBLINK" : "https://www.surreyschools.ca/schools/woodwardhill/Pages/default.aspx",
		"FACILITY_SUBTYPE" : "Elementary",
		"FACILITYID" : 1001234425,
		"LONGITUDE" : -122.8277910793735,
		"LATITUDE" : 49.113331363909154
	},
	{
		"json_featuretype" : "CSV",
		"LOCATION" : "7480 128 ST",
		"NAME" : "Dr. F.D. Sinclair Elementary School",
		"FACILITY_TYPE" : "School",
		"WEBLINK" : "https://www.surreyschools.ca/schools/drfdsinclair/Pages/default.aspx",
		"FACILITY_SUBTYPE" : "Elementary",
		"FACILITYID" : 1001235824,
		"LONGITUDE" : -122.86719800727411,
		"LATITUDE" : 49.13882038784888
	},
	{
		"json_featuretype" : "CSV",
		"LOCATION" : "",
		"NAME" : "Pacific Inn & Conference Centre",
		"FACILITY_TYPE" : "Hotel",
		"WEBLINK" : "http://www.pacificinn.com/",
		"FACILITY_SUBTYPE" : "",
		"FACILITYID" : 1001232830,
		"LONGITUDE" : -122.7642949928361,
		"LATITUDE" : 49.02320094356117
	},
	{
		"json_featuretype" : "CSV",
		"LOCATION" : "15350 99 ST",
		"NAME" : "Johnston Heights Secondary School",
		"FACILITY_TYPE" : "School",
		"WEBLINK" : "https://www.surreyschools.ca/schools/johnht/Pages/default.aspx",
		"FACILITY_SUBTYPE" : "Secondary",
		"FACILITYID" : 1001230731,
		"LONGITUDE" : -122.79740731334216,
		"LATITUDE" : 49.18193360566106
	},
	{
		"json_featuretype" : "CSV",
		"LOCATION" : "15051 101 AVE",
		"NAME" : "Landmark Cinemas 12 Guildford",
		"FACILITY_TYPE" : "Movie Theatre",
		"WEBLINK" : "http://www.landmarkcinemas.com/surrey-guildford",
		"FACILITY_SUBTYPE" : "",
		"FACILITYID" : 1001231062,
		"LONGITUDE" : -122.80442856671024,
		"LATITUDE" : 49.18676044630545
	},
	{
		"json_featuretype" : "CSV",
		"LOCATION" : "13700 96 AVE",
		"NAME" : "SMH Parking Lot",
		"FACILITY_TYPE" : "Municipal",
		"WEBLINK" : "",
		"FACILITY_SUBTYPE" : "",
		"FACILITYID" : 1001233528,
		"LONGITUDE" : -122.84343287516776,
		"LATITUDE" : 49.17658646595005
	},
	{
		"json_featuretype" : "CSV",
		"LOCATION" : "15090 66A AVE",
		"NAME" : "Regent Christian Academy",
		"FACILITY_TYPE" : "School",
		"WEBLINK" : "http://www.regent.bc.ca",
		"FACILITY_SUBTYPE" : "Private",
		"FACILITYID" : 1001231547,
		"LONGITUDE" : -122.80407726028452,
		"LATITUDE" : 49.122539701595564
	},
	{
		"json_featuretype" : "CSV",
		"LOCATION" : "15250 54A AVE",
		"NAME" : "Roots and Wings Montessori",
		"FACILITY_TYPE" : "School",
		"WEBLINK" : "http://www.rootsandwingsbc.com/",
		"FACILITY_SUBTYPE" : "Private",
		"FACILITYID" : 1001235096,
		"LONGITUDE" : -122.79957143584808,
		"LATITUDE" : 49.101257538583646
	},
	{
		"json_featuretype" : "CSV",
		"LOCATION" : "13409 72 AVE",
		"NAME" : "Newton Auto Care",
		"FACILITY_TYPE" : "Garbage and Recycling",
		"WEBLINK" : "http://www.newtonautocare.com/",
		"FACILITY_SUBTYPE" : "Used Oil",
		"FACILITYID" : 1001239186,
		"LONGITUDE" : -122.85088913815945,
		"LATITUDE" : 49.13397739120597
	},
	{
		"json_featuretype" : "CSV",
		"LOCATION" : "12111 86 AVE",
		"NAME" : "Scott Road Bottle Depot",
		"FACILITY_TYPE" : "Garbage and Recycling",
		"WEBLINK" : "http://www.encorpinc.com",
		"FACILITY_SUBTYPE" : "Bottle Depot",
		"FACILITYID" : 1001234563,
		"LONGITUDE" : -122.8876162837979,
		"LATITUDE" : 49.160055979484774
	},
	{
		"json_featuretype" : "CSV",
		"LOCATION" : "12150 92 AVE",
		"NAME" : "Kirkbride Elementary School",
		"FACILITY_TYPE" : "School",
		"WEBLINK" : "https://www.surreyschools.ca/schools/kirkbride/Pages/default.aspx",
		"FACILITY_SUBTYPE" : "Elementary",
		"FACILITYID" : 1001236300,
		"LONGITUDE" : -122.88574988726957,
		"LATITUDE" : 49.16982914614509
	},
	{
		"json_featuretype" : "CSV",
		"LOCATION" : "6505 123A ST",
		"NAME" : "Beaver Creek Elementary School",
		"FACILITY_TYPE" : "School",
		"WEBLINK" : "https://www.surreyschools.ca/schools/beavercreek/Pages/default.aspx",
		"FACILITY_SUBTYPE" : "Elementary",
		"FACILITYID" : 1001236301,
		"LONGITUDE" : -122.88123599184404,
		"LATITUDE" : 49.12175178458434
	},
	{
		"json_featuretype" : "CSV",
		"LOCATION" : "12405 100 AVE",
		"NAME" : "Prince Charles Elementary School",
		"FACILITY_TYPE" : "School",
		"WEBLINK" : "https://www.surreyschools.ca/schools/princecharles/Pages/default.aspx",
		"FACILITY_SUBTYPE" : "Elementary",
		"FACILITYID" : 1001236302,
		"LONGITUDE" : -122.87701539548164,
		"LATITUDE" : 49.18541076875244
	},
	{
		"json_featuretype" : "CSV",
		"LOCATION" : "18035 8 AVE",
		"NAME" : "Hall's Prairie Elementary School",
		"FACILITY_TYPE" : "School",
		"WEBLINK" : "https://www.surreyschools.ca/schools/hallsprairie/Pages/default.aspx",
		"FACILITY_SUBTYPE" : "Elementary",
		"FACILITYID" : 1001241511,
		"LONGITUDE" : -122.72292671650777,
		"LATITUDE" : 49.01725133288848
	},
	{
		"json_featuretype" : "CSV",
		"LOCATION" : "6677 140 ST",
		"NAME" : "Hyland Elementary School",
		"FACILITY_TYPE" : "School",
		"WEBLINK" : "https://www.surreyschools.ca/schools/hyland/Pages/default.aspx",
		"FACILITY_SUBTYPE" : "Elementary",
		"FACILITYID" : 1001245761,
		"LONGITUDE" : -122.8360362863109,
		"LATITUDE" : 49.123692191725
	},
	{
		"json_featuretype" : "CSV",
		"LOCATION" : "7318 143 ST",
		"NAME" : "M.B. Sanford Elementary School",
		"FACILITY_TYPE" : "School",
		"WEBLINK" : "https://www.surreyschools.ca/schools/sanford/Pages/default.aspx",
		"FACILITY_SUBTYPE" : "Elementary",
		"FACILITYID" : 1001246794,
		"LONGITUDE" : -122.82522994100472,
		"LATITUDE" : 49.13580012196812
	},
	{
		"json_featuretype" : "CSV",
		"LOCATION" : "13130 65B AVE",
		"NAME" : "St. Bernadette School",
		"FACILITY_TYPE" : "School",
		"WEBLINK" : "http://www.stbernadetteschool.ca/silver/news/",
		"FACILITY_SUBTYPE" : "Private",
		"FACILITYID" : 1001242319,
		"LONGITUDE" : -122.85835519117396,
		"LATITUDE" : 49.12148610027294
	},
	{
		"json_featuretype" : "CSV",
		"LOCATION" : "13359 81 AVE",
		"NAME" : "Newton Elementary School",
		"FACILITY_TYPE" : "School",
		"WEBLINK" : "https://www.surreyschools.ca/schools/newtonelem/Pages/default.aspx",
		"FACILITY_SUBTYPE" : "Elementary",
		"FACILITYID" : 1001240913,
		"LONGITUDE" : -122.85280614974776,
		"LATITUDE" : 49.15050621015311
	},
	{
		"json_featuretype" : "CSV",
		"LOCATION" : "1739 148 ST",
		"NAME" : "H.T. Thrift Elementary School",
		"FACILITY_TYPE" : "School",
		"WEBLINK" : "https://www.surreyschools.ca/schools/htthrift/Pages/default.aspx",
		"FACILITY_SUBTYPE" : "Elementary",
		"FACILITYID" : 1001242741,
		"LONGITUDE" : -122.81304726937002,
		"LATITUDE" : 49.033496811379656
	},
	{
		"json_featuretype" : "CSV",
		"LOCATION" : "14781 104 AVE",
		"NAME" : "Hjorth Road Elementary School",
		"FACILITY_TYPE" : "School",
		"WEBLINK" : "https://www.surreyschools.ca/schools/hjorthroad/Pages/default.aspx",
		"FACILITY_SUBTYPE" : "Elementary",
		"FACILITYID" : 1001239554,
		"LONGITUDE" : -122.81319123076612,
		"LATITUDE" : 49.19207608904674
	},
	{
		"json_featuretype" : "CSV",
		"LOCATION" : "14439 104 AVE",
		"NAME" : "Surrey Board of Trade",
		"FACILITY_TYPE" : "Other",
		"WEBLINK" : "http://www.businessinsurrey.com",
		"FACILITY_SUBTYPE" : "",
		"FACILITYID" : 1001245453,
		"LONGITUDE" : -122.8221134354796,
		"LATITUDE" : 49.19180106273001
	},
	{
		"json_featuretype" : "CSV",
		"LOCATION" : "16060 108 ST",
		"NAME" : "Fraser Heights Secondary School",
		"FACILITY_TYPE" : "School",
		"WEBLINK" : "https://www.surreyschools.ca/schools/fraserheights/Pages/default.aspx",
		"FACILITY_SUBTYPE" : "Secondary",
		"FACILITYID" : 1001247732,
		"LONGITUDE" : -122.77713187680254,
		"LATITUDE" : 49.19775240926748
	},
	{
		"json_featuretype" : "CSV",
		"LOCATION" : "1880 LARONDE DR",
		"NAME" : "Laronde (French Immersion) Elementary School",
		"FACILITY_TYPE" : "School",
		"WEBLINK" : "https://www.surreyschools.ca/schools/laronde/Pages/default.aspx",
		"FACILITY_SUBTYPE" : "Elementary",
		"FACILITYID" : 1001246738,
		"LONGITUDE" : -122.857259946147,
		"LATITUDE" : 49.03560734560129
	},
	{
		"json_featuretype" : "CSV",
		"LOCATION" : "10135 132 ST",
		"NAME" : "Old Yale Road Elementary School",
		"FACILITY_TYPE" : "School",
		"WEBLINK" : "https://www.surreyschools.ca/schools/oldyaleroad/Pages/default.aspx",
		"FACILITY_SUBTYPE" : "Elementary",
		"FACILITYID" : 1001251851,
		"LONGITUDE" : -122.85759018030983,
		"LATITUDE" : 49.18685621662749
	},
	{
		"json_featuretype" : "CSV",
		"LOCATION" : "5404 125A ST",
		"NAME" : "Colebrook Elementary School",
		"FACILITY_TYPE" : "School",
		"WEBLINK" : "https://www.surreyschools.ca/schools/colebrook/Pages/default.aspx",
		"FACILITY_SUBTYPE" : "Elementary",
		"FACILITYID" : 1001253510,
		"LONGITUDE" : -122.87381650191786,
		"LATITUDE" : 49.10139489656614
	},
	{
		"json_featuretype" : "CSV",
		"LOCATION" : "13750 96 AVE",
		"NAME" : "Surrey Memorial Hospital",
		"FACILITY_TYPE" : "Hospital",
		"WEBLINK" : "http://www.fraserhealth.ca/find_us/locations/our_locations?site_id=1792",
		"FACILITY_SUBTYPE" : "",
		"FACILITYID" : 1001253734,
		"LONGITUDE" : -122.8425430154873,
		"LATITUDE" : 49.175846438194846
	},
	{
		"json_featuretype" : "CSV",
		"LOCATION" : "12355 PATULLO PL",
		"NAME" : "Bridgeview Bottle & Return-It Depot",
		"FACILITY_TYPE" : "Garbage and Recycling",
		"WEBLINK" : "https://www.return-it.ca/locations/bridgeview-bottle-return-it-depot/",
		"FACILITY_SUBTYPE" : "Bottle Depot",
		"FACILITYID" : 1001249640,
		"LONGITUDE" : -122.87938720647963,
		"LATITUDE" : 49.20325161400888
	},
	{
		"json_featuretype" : "CSV",
		"LOCATION" : "13875 113 AVE",
		"NAME" : "Surrey Traditional Elementary School",
		"FACILITY_TYPE" : "School",
		"WEBLINK" : "https://www.surreyschools.ca/schools/surreytraditional/Pages/default.aspx",
		"FACILITY_SUBTYPE" : "Elementary",
		"FACILITYID" : 1001249963,
		"LONGITUDE" : -122.83797416144748,
		"LATITUDE" : 49.20824849804901
	},
	{
		"json_featuretype" : "CSV",
		"LOCATION" : "8305 122A ST",
		"NAME" : "Kennedy Trail Elementary School",
		"FACILITY_TYPE" : "School",
		"WEBLINK" : "https://www.surreyschools.ca/schools/kennedytrail/Pages/default.aspx",
		"FACILITY_SUBTYPE" : "Elementary",
		"FACILITYID" : 1001251320,
		"LONGITUDE" : -122.88356093437434,
		"LATITUDE" : 49.15400797733691
	},
	{
		"json_featuretype" : "CSV",
		"LOCATION" : "7057 191 ST",
		"NAME" : "Hazelgrove Elementary School",
		"FACILITY_TYPE" : "School",
		"WEBLINK" : "https://www.surreyschools.ca/schools/hazelgrove/Pages/default.aspx",
		"FACILITY_SUBTYPE" : "Elementary",
		"FACILITYID" : 1001251383,
		"LONGITUDE" : -122.69441981063751,
		"LATITUDE" : 49.130554117431366
	},
	{
		"json_featuretype" : "CSV",
		"LOCATION" : "9815 140 ST",
		"NAME" : "Surrey Community Service Centre",
		"FACILITY_TYPE" : "Municipal",
		"WEBLINK" : "http://www.scss.ca",
		"FACILITY_SUBTYPE" : "",
		"FACILITYID" : 1001249573,
		"LONGITUDE" : -122.83552751523216,
		"LATITUDE" : 49.18066683086455
	},
	{
		"json_featuretype" : "CSV",
		"LOCATION" : "12870 72 AVE",
		"NAME" : "Princess Margaret Secondary School",
		"FACILITY_TYPE" : "School",
		"WEBLINK" : "http://www.sd36.bc.ca/pmarga/",
		"FACILITY_SUBTYPE" : "Secondary",
		"FACILITYID" : 1001249683,
		"LONGITUDE" : -122.86567883128218,
		"LATITUDE" : 49.131904839383985
	},
	{
		"json_featuretype" : "CSV",
		"LOCATION" : "11665 97 AVE",
		"NAME" : "Royal Heights Elementary School",
		"FACILITY_TYPE" : "School",
		"WEBLINK" : "https://www.surreyschools.ca/schools/royalheights/Pages/default.aspx",
		"FACILITY_SUBTYPE" : "Elementary",
		"FACILITYID" : 1001251063,
		"LONGITUDE" : -122.89889282310321,
		"LATITUDE" : 49.179421786219635
	},
	{
		"json_featuretype" : "CSV",
		"LOCATION" : "14525 110A AVE",
		"NAME" : "Ellendale Elementary School",
		"FACILITY_TYPE" : "School",
		"WEBLINK" : "https://www.surreyschools.ca/schools/ellendale/Pages/default.aspx",
		"FACILITY_SUBTYPE" : "Elementary",
		"FACILITYID" : 1001254227,
		"LONGITUDE" : -122.819799093427,
		"LATITUDE" : 49.203586488805165
	},
	{
		"json_featuretype" : "CSV",
		"LOCATION" : "14590 116A AVE",
		"NAME" : "Iqra Islamic School",
		"FACILITY_TYPE" : "School",
		"WEBLINK" : "http://www.iqraschool.com",
		"FACILITY_SUBTYPE" : "Private",
		"FACILITYID" : 1001254241,
		"LONGITUDE" : -122.81821603718579,
		"LATITUDE" : 49.21383695080695
	},
	{
		"json_featuretype" : "CSV",
		"LOCATION" : "",
		"NAME" : "Surrey Central Inn",
		"FACILITY_TYPE" : "Hotel",
		"WEBLINK" : "http://surreycentralinn.com/",
		"FACILITY_SUBTYPE" : "",
		"FACILITYID" : 1001254586,
		"LONGITUDE" : -122.83576060573623,
		"LATITUDE" : 49.19200591378879
	},
	{
		"json_featuretype" : "CSV",
		"LOCATION" : "15181 FRASER HWY",
		"NAME" : "Mr. Lube (Fleetwood)",
		"FACILITY_TYPE" : "Garbage and Recycling",
		"WEBLINK" : "http://www.mrlube.com/en/Mr-Lube-Near-You/Locate-a-Mr-Lube/surrey-15181-fraser-highway.aspx?storeid=34&code=pc",
		"FACILITY_SUBTYPE" : "Used Oil",
		"FACILITYID" : 1001254438,
		"LONGITUDE" : -122.80174905473082,
		"LATITUDE" : 49.166912678264126
	},
	{
		"json_featuretype" : "CSV",
		"LOCATION" : "10504 139 ST",
		"NAME" : "Our Lady Of Good Counsel",
		"FACILITY_TYPE" : "School",
		"WEBLINK" : "http://www.olgcschool.ca",
		"FACILITY_SUBTYPE" : "Private",
		"FACILITYID" : 1001254922,
		"LONGITUDE" : -122.83536770889668,
		"LATITUDE" : 49.193466054180654
	},
	{
		"json_featuretype" : "CSV",
		"LOCATION" : "6225 136 ST",
		"NAME" : "Traditional Learning Academy Homeschool Centre",
		"FACILITY_TYPE" : "School",
		"WEBLINK" : "http://schoolathome.ca/",
		"FACILITY_SUBTYPE" : "Private",
		"FACILITYID" : 1001254142,
		"LONGITUDE" : -122.84583075178844,
		"LATITUDE" : 49.11599009564713
	},
	{
		"json_featuretype" : "CSV",
		"LOCATION" : "13484 24 AVE",
		"NAME" : "Elgin Park Secondary School",
		"FACILITY_TYPE" : "School",
		"WEBLINK" : "https://www.surreyschools.ca/schools/elginpark/Pages/default.aspx",
		"FACILITY_SUBTYPE" : "Secondary",
		"FACILITYID" : 1001254156,
		"LONGITUDE" : -122.8484479278328,
		"LATITUDE" : 49.04461295606385
	},
	{
		"json_featuretype" : "CSV",
		"LOCATION" : "12928 66A AVE",
		"NAME" : "Martha Jane Norris Elementary School",
		"FACILITY_TYPE" : "School",
		"WEBLINK" : "https://www.surreyschools.ca/schools/marthajanenorris/Pages/default.aspx",
		"FACILITY_SUBTYPE" : "Elementary",
		"FACILITYID" : 1001253057,
		"LONGITUDE" : -122.86495168879047,
		"LATITUDE" : 49.12343164351135
	},
	{
		"json_featuretype" : "CSV",
		"LOCATION" : "7599 KING GEORGE BLVD",
		"NAME" : "Canadian Tire (Newton)",
		"FACILITY_TYPE" : "Garbage and Recycling",
		"WEBLINK" : "http://www.canadiantire.ca/en.html",
		"FACILITY_SUBTYPE" : "Used Oil",
		"FACILITYID" : 1001252882,
		"LONGITUDE" : -122.8477372268947,
		"LATITUDE" : 49.14025449829108
	},
	{
		"json_featuretype" : "CSV",
		"LOCATION" : "13140 88 AVE",
		"NAME" : "Jenill Recycling",
		"FACILITY_TYPE" : "Garbage and Recycling",
		"WEBLINK" : "http://www.return-it.ca/locations/metro-vancouver/surrey/jenill-recycling/",
		"FACILITY_SUBTYPE" : "Bottle Depot",
		"FACILITYID" : 1001255595,
		"LONGITUDE" : -122.85884118052596,
		"LATITUDE" : 49.16206343138879
	},
	{
		"json_featuretype" : "CSV",
		"LOCATION" : "10929 160 ST",
		"NAME" : "Erma Stephenson Elementary School",
		"FACILITY_TYPE" : "School",
		"WEBLINK" : "https://www.surreyschools.ca/schools/ermastephenson/Pages/default.aspx",
		"FACILITY_SUBTYPE" : "Elementary",
		"FACILITYID" : 1001261444,
		"LONGITUDE" : -122.77948997629993,
		"LATITUDE" : 49.20132826674257
	},
	{
		"json_featuretype" : "CSV",
		"LOCATION" : "7079 148 ST",
		"NAME" : "T.E. Scott Elementary School",
		"FACILITY_TYPE" : "School",
		"WEBLINK" : "https://www.surreyschools.ca/schools/tescott/Pages/default.aspx",
		"FACILITY_SUBTYPE" : "Elementary",
		"FACILITYID" : 1001262103,
		"LONGITUDE" : -122.81275735831984,
		"LATITUDE" : 49.13137619937878
	},
	{
		"json_featuretype" : "CSV",
		"LOCATION" : "5228 KING GEORGE BLVD",
		"NAME" : "Birdies & Buckets Family Golf Centre",
		"FACILITY_TYPE" : "Golf",
		"WEBLINK" : "http://www.birdiesandbuckets.ca/",
		"FACILITY_SUBTYPE" : "",
		"FACILITYID" : 1001261244,
		"LONGITUDE" : -122.81637709855386,
		"LATITUDE" : 49.09831893535629
	},
	{
		"json_featuretype" : "CSV",
		"LOCATION" : "8131 156 ST",
		"NAME" : "Coyote Creek Elementary School",
		"FACILITY_TYPE" : "School",
		"WEBLINK" : "https://www.surreyschools.ca/schools/coyotecreek/Pages/default.aspx",
		"FACILITY_SUBTYPE" : "Elementary",
		"FACILITYID" : 1001261410,
		"LONGITUDE" : -122.79101035825965,
		"LATITUDE" : 49.15024379376471
	},
	{
		"json_featuretype" : "CSV",
		"LOCATION" : "",
		"NAME" : "Pacific Highway Border Crossing (Truck Crossing)",
		"FACILITY_TYPE" : "Other",
		"WEBLINK" : "",
		"FACILITY_SUBTYPE" : "",
		"FACILITYID" : 1001263698,
		"LONGITUDE" : -122.73414783819744,
		"LATITUDE" : 49.00301104642862
	},
	{
		"json_featuretype" : "CSV",
		"LOCATION" : "14123 92 AVE",
		"NAME" : "Surrey Schools - District Education Centre",
		"FACILITY_TYPE" : "School",
		"WEBLINK" : "https://www.surreyschools.ca/About/ContactUs/Pages/default.aspx",
		"FACILITY_SUBTYPE" : "Administration",
		"FACILITYID" : 1001262908,
		"LONGITUDE" : -122.83360472586016,
		"LATITUDE" : 49.17052494875479
	},
	{
		"json_featuretype" : "CSV",
		"LOCATION" : "9457 KING GEORGE BLVD",
		"NAME" : "Queen Elizabeth Secondary School",
		"FACILITY_TYPE" : "School",
		"WEBLINK" : "https://www.surreyschools.ca/schools/queene/Pages/default.aspx",
		"FACILITY_SUBTYPE" : "Secondary",
		"FACILITYID" : 1001264552,
		"LONGITUDE" : -122.84746596815779,
		"LATITUDE" : 49.1745210716468
	},
	{
		"json_featuretype" : "CSV",
		"LOCATION" : "8226 146 ST",
		"NAME" : "Janice Churchill Elementary School",
		"FACILITY_TYPE" : "School",
		"WEBLINK" : "https://www.surreyschools.ca/schools/janicechurchill/Pages/default.aspx",
		"FACILITY_SUBTYPE" : "Elementary",
		"FACILITYID" : 1001264219,
		"LONGITUDE" : -122.8161940039055,
		"LATITUDE" : 49.1527187695934
	},
	{
		"json_featuretype" : "CSV",
		"LOCATION" : "",
		"NAME" : "Hampton Inn & Suites by Hilton",
		"FACILITY_TYPE" : "Hotel",
		"WEBLINK" : "http://hamptoninn3.hilton.com/en/hotels/british-columbia/hampton-inn-and-suites-by-hilton-langley-surrey-YNJBCHX/index.html",
		"FACILITY_SUBTYPE" : "",
		"FACILITYID" : 1001268526,
		"LONGITUDE" : -122.68246396483316,
		"LATITUDE" : 49.10792182989948
	},
	{
		"json_featuretype" : "CSV",
		"LOCATION" : "7218 KING GEORGE BLVD",
		"NAME" : "Newton Bottle Depot Inc.",
		"FACILITY_TYPE" : "Garbage and Recycling",
		"WEBLINK" : "http://www.encorpinc.com",
		"FACILITY_SUBTYPE" : "Bottle Depot",
		"FACILITYID" : 1001269785,
		"LONGITUDE" : -122.84448181225285,
		"LATITUDE" : 49.1342599090803
	},
	{
		"json_featuretype" : "CSV",
		"LOCATION" : "7778 152 ST",
		"NAME" : "Eaglequest Golf Course",
		"FACILITY_TYPE" : "Golf",
		"WEBLINK" : "http://www.surrey.ca/culture-recreation/7287.aspx",
		"FACILITY_SUBTYPE" : "",
		"FACILITYID" : 1001266716,
		"LONGITUDE" : -122.79945439989756,
		"LATITUDE" : 49.14393525245983
	},
	{
		"json_featuretype" : "CSV",
		"LOCATION" : "13838 91 AVE",
		"NAME" : "Creekside Elementary School",
		"FACILITY_TYPE" : "School",
		"WEBLINK" : "https://www.surreyschools.ca/schools/creekside/Pages/default.aspx",
		"FACILITY_SUBTYPE" : "Elementary",
		"FACILITYID" : 1001269436,
		"LONGITUDE" : -122.83880790454974,
		"LATITUDE" : 49.167554599100896
	},
	{
		"json_featuretype" : "CSV",
		"LOCATION" : "",
		"NAME" : "Ramada",
		"FACILITY_TYPE" : "Hotel",
		"WEBLINK" : "http://www.ramadalangleysurrey.com/",
		"FACILITY_SUBTYPE" : "",
		"FACILITYID" : 1001269842,
		"LONGITUDE" : -122.69040997363119,
		"LATITUDE" : 49.10521900395542
	},
	{
		"json_featuretype" : "CSV",
		"LOCATION" : "9750 140 ST",
		"NAME" : "Jim Pattison Outpatient Care & Surgery Centre",
		"FACILITY_TYPE" : "Hospital",
		"WEBLINK" : "http://www.fraserhealth.ca/find-us/locations/our-locations?site_id=2500",
		"FACILITY_SUBTYPE" : "",
		"FACILITYID" : 1001267536,
		"LONGITUDE" : -122.833182761819,
		"LATITUDE" : 49.1793908636909
	},
	{
		"json_featuretype" : "CSV",
		"LOCATION" : "6248 144 ST",
		"NAME" : "Sullivan Heights Secondary School",
		"FACILITY_TYPE" : "School",
		"WEBLINK" : "https://www.surreyschools.ca/schools/sullivanheights/Pages/default.aspx",
		"FACILITY_SUBTYPE" : "Secondary",
		"FACILITYID" : 1001270687,
		"LONGITUDE" : -122.82161337323734,
		"LATITUDE" : 49.11638627882881
	},
	{
		"json_featuretype" : "CSV",
		"LOCATION" : "1730 142 ST",
		"NAME" : "Bayridge Elementary School",
		"FACILITY_TYPE" : "School",
		"WEBLINK" : "https://www.surreyschools.ca/schools/bayridge/Pages/default.aspx",
		"FACILITY_SUBTYPE" : "Elementary",
		"FACILITYID" : 1001267692,
		"LONGITUDE" : -122.82797863371647,
		"LATITUDE" : 49.03383901413227
	},
	{
		"json_featuretype" : "CSV",
		"LOCATION" : "13266 70B AVE",
		"NAME" : "W.E. Kinvig Elementary School",
		"FACILITY_TYPE" : "School",
		"WEBLINK" : "https://www.surreyschools.ca/schools/wekinvig/Pages/default.aspx",
		"FACILITY_SUBTYPE" : "Elementary",
		"FACILITYID" : 1001269418,
		"LONGITUDE" : -122.85451679203504,
		"LATITUDE" : 49.13052944867351
	},
	{
		"json_featuretype" : "CSV",
		"LOCATION" : "15093 FRASER HWY",
		"NAME" : "Fleetwood Bottle Return Depot",
		"FACILITY_TYPE" : "Garbage and Recycling",
		"WEBLINK" : "https://www.return-it.ca/locations/fleetwood-bottle-depot/",
		"FACILITY_SUBTYPE" : "Bottle Depot",
		"FACILITYID" : 1001270960,
		"LONGITUDE" : -122.80419016762696,
		"LATITUDE" : 49.16756679466627
	},
	{
		"json_featuretype" : "CSV",
		"LOCATION" : "10441 132 ST",
		"NAME" : "Kwantlen Park Secondary School",
		"FACILITY_TYPE" : "School",
		"WEBLINK" : "https://www.surreyschools.ca/schools/kwantlenpark/Pages/default.aspx",
		"FACILITY_SUBTYPE" : "Secondary",
		"FACILITYID" : 1001274245,
		"LONGITUDE" : -122.85784167659082,
		"LATITUDE" : 49.19258303681268
	},
	{
		"json_featuretype" : "CSV",
		"LOCATION" : "5642 176A ST",
		"NAME" : "Cloverdale Library",
		"FACILITY_TYPE" : "Library",
		"WEBLINK" : "http://www.surreylibraries.ca/location-hours/4684.aspx",
		"FACILITY_SUBTYPE" : "",
		"FACILITYID" : 1001222909,
		"LONGITUDE" : -122.73318631416278,
		"LATITUDE" : 49.10479878697791
	},
	{
		"json_featuretype" : "CSV",
		"LOCATION" : "6329 KING GEORGE BLVD",
		"NAME" : "Newton Learning Centre",
		"FACILITY_TYPE" : "School",
		"WEBLINK" : "http://www.sd36.bc.ca",
		"FACILITY_SUBTYPE" : "Elementary",
		"FACILITYID" : 1001272561,
		"LONGITUDE" : -122.84625359737139,
		"LATITUDE" : 49.11798743484689
	},
	{
		"json_featuretype" : "CSV",
		"LOCATION" : "13455 90 AVE",
		"NAME" : "Cindrich Elementary School",
		"FACILITY_TYPE" : "School",
		"WEBLINK" : "https://www.surreyschools.ca/schools/cindrich/Pages/default.aspx",
		"FACILITY_SUBTYPE" : "Elementary",
		"FACILITYID" : 1001272079,
		"LONGITUDE" : -122.85048060192575,
		"LATITUDE" : 49.16708524993914
	},
	{
		"json_featuretype" : "CSV",
		"LOCATION" : "",
		"NAME" : "Guildford Town Centre",
		"FACILITY_TYPE" : "Shopping Centre",
		"WEBLINK" : "https://www.guildfordtowncentre.com",
		"FACILITY_SUBTYPE" : "",
		"FACILITYID" : 1001270132,
		"LONGITUDE" : -122.80405465674032,
		"LATITUDE" : 49.19003385755676
	},
	{
		"json_featuretype" : "CSV",
		"LOCATION" : "17465 60 AVE",
		"NAME" : "William of Orange Christian School",
		"FACILITY_TYPE" : "School",
		"WEBLINK" : "http://www.credochs.com/wohome.cfm",
		"FACILITY_SUBTYPE" : "Private",
		"FACILITYID" : 1001272892,
		"LONGITUDE" : -122.73891419345348,
		"LATITUDE" : 49.11261571551097
	},
	{
		"json_featuretype" : "CSV",
		"LOCATION" : "13723 CRESCENT RD",
		"NAME" : "Mud Bay Yacht Club",
		"FACILITY_TYPE" : "Other Recreation",
		"WEBLINK" : "http://www.cbcyachtclubs.ca/members.htm",
		"FACILITY_SUBTYPE" : "",
		"FACILITYID" : 1001275344,
		"LONGITUDE" : -122.84260095683995,
		"LATITUDE" : 49.06553356566806
	},
	{
		"json_featuretype" : "CSV",
		"LOCATION" : "13367 97 AVE",
		"NAME" : "A.H.P. Matthew Elementary School",
		"FACILITY_TYPE" : "School",
		"WEBLINK" : "https://www.surreyschools.ca/schools/ahpmatthew/Pages/default.aspx",
		"FACILITY_SUBTYPE" : "Elementary",
		"FACILITYID" : 1001273958,
		"LONGITUDE" : -122.85329312345279,
		"LATITUDE" : 49.17958585206561
	},
	{
		"json_featuretype" : "CSV",
		"LOCATION" : "2656 160 ST",
		"NAME" : "Southridge Senior Secondary School",
		"FACILITY_TYPE" : "School",
		"WEBLINK" : "http://www.southridge.bc.ca/",
		"FACILITY_SUBTYPE" : "Private",
		"FACILITYID" : 1001283485,
		"LONGITUDE" : -122.77595308456019,
		"LATITUDE" : 49.050407779197144
	},
	{
		"json_featuretype" : "CSV",
		"LOCATION" : "14530 104 AVE",
		"NAME" : "Dams Ford Lincoln Sales Ltd.",
		"FACILITY_TYPE" : "Garbage and Recycling",
		"WEBLINK" : "http://damsfordloln.dealerconnection.com/",
		"FACILITY_SUBTYPE" : "Used Oil",
		"FACILITYID" : 1001279751,
		"LONGITUDE" : -122.8200509570703,
		"LATITUDE" : 49.1907023009164
	},
	{
		"json_featuretype" : "CSV",
		"LOCATION" : "2025 152 ST",
		"NAME" : "North Bluff Shell",
		"FACILITY_TYPE" : "Garbage and Recycling",
		"WEBLINK" : "http://www.shell.ca/en/products-services/shell-for-drivers/station-locator.html",
		"FACILITY_SUBTYPE" : "Used Oil",
		"FACILITYID" : 1001279002,
		"LONGITUDE" : -122.801721147946,
		"LATITUDE" : 49.038750910586614
	},
	{
		"json_featuretype" : "CSV",
		"LOCATION" : "19233 60 AVE",
		"NAME" : "Latimer Road Elementary School",
		"FACILITY_TYPE" : "School",
		"WEBLINK" : "https://www.surreyschools.ca/schools/latimerroad/Pages/default.aspx",
		"FACILITY_SUBTYPE" : "Elementary",
		"FACILITYID" : 1001283054,
		"LONGITUDE" : -122.68996915781405,
		"LATITUDE" : 49.11200140867659
	},
	{
		"json_featuretype" : "CSV",
		"LOCATION" : "16126 93A AVE",
		"NAME" : "Serpentine Heights Elementary School",
		"FACILITY_TYPE" : "School",
		"WEBLINK" : "https://www.surreyschools.ca/schools/serpentineheights/Pages/default.aspx",
		"FACILITY_SUBTYPE" : "Elementary",
		"FACILITYID" : 1001282866,
		"LONGITUDE" : -122.77544797699417,
		"LATITUDE" : 49.17259997694293
	},
	{
		"json_featuretype" : "CSV",
		"LOCATION" : "16545 61 AVE",
		"NAME" : "A.J. McLellan Elementary School",
		"FACILITY_TYPE" : "School",
		"WEBLINK" : "https://www.surreyschools.ca/schools/ajmclellan/Pages/default.aspx",
		"FACILITY_SUBTYPE" : "Elementary",
		"FACILITYID" : 1001284098,
		"LONGITUDE" : -122.763659485025,
		"LATITUDE" : 49.11413524588646
	},
	{
		"json_featuretype" : "CSV",
		"LOCATION" : "17635 58 AVE",
		"NAME" : "Cloverdale Mini Rec Centre",
		"FACILITY_TYPE" : "Recreation Centre",
		"WEBLINK" : "http://www.surrey.ca/culture-recreation/8524.aspx",
		"FACILITY_SUBTYPE" : "",
		"FACILITYID" : 1001287199,
		"LONGITUDE" : -122.73394842215012,
		"LATITUDE" : 49.107926526738204
	},
	{
		"json_featuretype" : "CSV",
		"LOCATION" : "16590 96 AVE",
		"NAME" : "PLEA (Waypoint) program",
		"FACILITY_TYPE" : "School",
		"WEBLINK" : "http://redbookonline.bc211.ca/service/9508129_9508129/waypoint_program",
		"FACILITY_SUBTYPE" : "Programs and Services",
		"FACILITYID" : 1001289102,
		"LONGITUDE" : -122.76228126841941,
		"LATITUDE" : 49.176704178395866
	},
	{
		"json_featuretype" : "CSV",
		"LOCATION" : "15372 94 AVE",
		"NAME" : "Berkshire Park Elementary School",
		"FACILITY_TYPE" : "School",
		"WEBLINK" : "https://www.surreyschools.ca/schools/berkshirepark/Pages/default.aspx",
		"FACILITY_SUBTYPE" : "Elementary",
		"FACILITYID" : 1001293492,
		"LONGITUDE" : -122.79678305743275,
		"LATITUDE" : 49.172781078706066
	},
	{
		"json_featuretype" : "CSV",
		"LOCATION" : "8222 168 ST",
		"NAME" : "Coast Meridian Elementary School",
		"FACILITY_TYPE" : "School",
		"WEBLINK" : "https://www.surreyschools.ca/schools/coastmeridian/Pages/default.aspx",
		"FACILITY_SUBTYPE" : "Elementary",
		"FACILITYID" : 1001291908,
		"LONGITUDE" : -122.75431043769827,
		"LATITUDE" : 49.15230002212931
	},
	{
		"json_featuretype" : "CSV",
		"LOCATION" : "10650 164 ST",
		"NAME" : "Fraser Wood Elementary School",
		"FACILITY_TYPE" : "School",
		"WEBLINK" : "https://www.surreyschools.ca/schools/fraserwood/Pages/default.aspx",
		"FACILITY_SUBTYPE" : "Elementary",
		"FACILITYID" : 1001291909,
		"LONGITUDE" : -122.76651383225342,
		"LATITUDE" : 49.196152708517324
	},
	{
		"json_featuretype" : "CSV",
		"LOCATION" : "7003 184 ST",
		"NAME" : "Clayton Heights Secondary School",
		"FACILITY_TYPE" : "School",
		"WEBLINK" : "https://www.surreyschools.ca/schools/clyhts/Pages/default.aspx",
		"FACILITY_SUBTYPE" : "Secondary",
		"FACILITYID" : 1001294474,
		"LONGITUDE" : -122.7032222343898,
		"LATITUDE" : 49.12892145868011
	},
	{
		"json_featuretype" : "CSV",
		"LOCATION" : "14505 84 AVE",
		"NAME" : "Enver Creek Secondary School",
		"FACILITY_TYPE" : "School",
		"WEBLINK" : "https://www.surreyschools.ca/schools/envercreek/Pages/default.aspx",
		"FACILITY_SUBTYPE" : "Secondary",
		"FACILITYID" : 1001302057,
		"LONGITUDE" : -122.82044792004824,
		"LATITUDE" : 49.156746489270816
	},
	{
		"json_featuretype" : "CSV",
		"LOCATION" : "",
		"NAME" : "Comfort Inn & Suites Surrey",
		"FACILITY_TYPE" : "Hotel",
		"WEBLINK" : "http://www.comfortinnsurrey.com/",
		"FACILITY_SUBTYPE" : "",
		"FACILITYID" : 1001299264,
		"LONGITUDE" : -122.76216144122155,
		"LATITUDE" : 49.15239930518225
	},
	{
		"json_featuretype" : "CSV",
		"LOCATION" : "7940 156 ST",
		"NAME" : "Fleetwood Park Secondary School",
		"FACILITY_TYPE" : "School",
		"WEBLINK" : "https://www.surreyschools.ca/schools/fltsec/Pages/default.aspx",
		"FACILITY_SUBTYPE" : "Secondary",
		"FACILITYID" : 1001299344,
		"LONGITUDE" : -122.78875204122171,
		"LATITUDE" : 49.14759138054079
	},
	{
		"json_featuretype" : "CSV",
		"LOCATION" : "2795 184 ST",
		"NAME" : "East Kensington Elementary School",
		"FACILITY_TYPE" : "School",
		"WEBLINK" : "https://www.surreyschools.ca/schools/eastkensington/Pages/default.aspx",
		"FACILITY_SUBTYPE" : "Elementary",
		"FACILITYID" : 1001297561,
		"LONGITUDE" : -122.71416513530524,
		"LATITUDE" : 49.052726132773124
	},
	{
		"json_featuretype" : "CSV",
		"LOCATION" : "14323 57 AVE",
		"NAME" : "Surrey Pre-Trial Centre",
		"FACILITY_TYPE" : "Justice",
		"WEBLINK" : "http://www.provincialcourt.bc.ca",
		"FACILITY_SUBTYPE" : "",
		"FACILITYID" : 1001295620,
		"LONGITUDE" : -122.82652103078566,
		"LATITUDE" : 49.10744343278104
	},
	{
		"json_featuretype" : "CSV",
		"LOCATION" : "10752 157 ST",
		"NAME" : "Dogwood Elementary Elementary School",
		"FACILITY_TYPE" : "School",
		"WEBLINK" : "https://www.surreyschools.ca/schools/dogwood/Pages/default.aspx",
		"FACILITY_SUBTYPE" : "Elementary",
		"FACILITYID" : 1001299949,
		"LONGITUDE" : -122.7860761268791,
		"LATITUDE" : 49.19789936553836
	},
	{
		"json_featuretype" : "CSV",
		"LOCATION" : "17857 56 AVE",
		"NAME" : "Cloverdale Traditional Elementary School",
		"FACILITY_TYPE" : "School",
		"WEBLINK" : "https://www.surreyschools.ca/schools/cloverdaletraditional/Pages/default.aspx",
		"FACILITY_SUBTYPE" : "Elementary",
		"FACILITYID" : 1001302403,
		"LONGITUDE" : -122.72811067678653,
		"LATITUDE" : 49.10470523165317
	},
	{
		"json_featuretype" : "CSV",
		"LOCATION" : "3487 KING GEORGE BLVD",
		"NAME" : "Heritage Christian School",
		"FACILITY_TYPE" : "School",
		"WEBLINK" : "http://www.hcs-whiterock.ca",
		"FACILITY_SUBTYPE" : "Private",
		"FACILITYID" : 1001303298,
		"LONGITUDE" : -122.8184636362834,
		"LATITUDE" : 49.06475098038947
	},
	{
		"json_featuretype" : "CSV",
		"LOCATION" : "11113 148 ST",
		"NAME" : "Pilath Hall House",
		"FACILITY_TYPE" : "Community Hall/Centre",
		"WEBLINK" : "",
		"FACILITY_SUBTYPE" : "",
		"FACILITYID" : 1001298090,
		"LONGITUDE" : -122.81321265685962,
		"LATITUDE" : 49.20445718700257
	},
	{
		"json_featuretype" : "CSV",
		"LOCATION" : "13665 102 AVE",
		"NAME" : "Canadian Tire (City Centre)",
		"FACILITY_TYPE" : "Garbage and Recycling",
		"WEBLINK" : "http://www.canadiantire.ca/en.html",
		"FACILITY_SUBTYPE" : "Used Oil",
		"FACILITYID" : 1001302178,
		"LONGITUDE" : -122.84313287927397,
		"LATITUDE" : 49.18973668130799
	},
	{
		"json_featuretype" : "CSV",
		"LOCATION" : "6700 144 ST",
		"NAME" : "Thomas G. Ellis Facilities Centre",
		"FACILITY_TYPE" : "School",
		"WEBLINK" : "https://www.surreyschools.ca/departments/FACL/Pages/default.aspx",
		"FACILITY_SUBTYPE" : "Administration",
		"FACILITYID" : 1001297516,
		"LONGITUDE" : -122.82217979096956,
		"LATITUDE" : 49.12467417007941
	},
	{
		"json_featuretype" : "CSV",
		"LOCATION" : "18620 56 AVE",
		"NAME" : "Relevant High School",
		"FACILITY_TYPE" : "School",
		"WEBLINK" : "http://www.relevanthighschool.ca",
		"FACILITY_SUBTYPE" : "Private",
		"FACILITYID" : 1001305487,
		"LONGITUDE" : -122.70627075503451,
		"LATITUDE" : 49.10350864299762
	},
	{
		"json_featuretype" : "CSV",
		"LOCATION" : "9484 122 ST",
		"NAME" : "L.A. Matheson Secondary School",
		"FACILITY_TYPE" : "School",
		"WEBLINK" : "https://www.surreyschools.ca/schools/lamath/Pages/default.aspx",
		"FACILITY_SUBTYPE" : "Secondary",
		"FACILITYID" : 1001305499,
		"LONGITUDE" : -122.88341755064258,
		"LATITUDE" : 49.17540589179053
	},
	{
		"json_featuretype" : "CSV",
		"LOCATION" : "",
		"NAME" : "Four Points By Sheraton Surrey",
		"FACILITY_TYPE" : "Hotel",
		"WEBLINK" : "http://www.fourpointssurrey.com/",
		"FACILITY_SUBTYPE" : "",
		"FACILITYID" : 1001300318,
		"LONGITUDE" : -122.78345060893096,
		"LATITUDE" : 49.19209287838974
	},
	{
		"json_featuretype" : "CSV",
		"LOCATION" : "14724 84 AVE",
		"NAME" : "Cornerstone Kindergarten",
		"FACILITY_TYPE" : "School",
		"WEBLINK" : "http://www.cornerstone-montessori.ca",
		"FACILITY_SUBTYPE" : "Private",
		"FACILITYID" : 1001308697,
		"LONGITUDE" : -122.81438594730328,
		"LATITUDE" : 49.15503796121794
	},
	{
		"json_featuretype" : "CSV",
		"LOCATION" : "6016 152 ST",
		"NAME" : "Sullivan Elementary School",
		"FACILITY_TYPE" : "School",
		"WEBLINK" : "https://www.surreyschools.ca/schools/sullivan/Pages/default.aspx",
		"FACILITY_SUBTYPE" : "Elementary",
		"FACILITYID" : 1001303893,
		"LONGITUDE" : -122.79983358935907,
		"LATITUDE" : 49.11209344855285
	},
	{
		"json_featuretype" : "CSV",
		"LOCATION" : "18690 60 AVE",
		"NAME" : "Sunrise Ridge Elementary School",
		"FACILITY_TYPE" : "School",
		"WEBLINK" : "https://www.surreyschools.ca/schools/sunriseridge/Pages/default.aspx",
		"FACILITY_SUBTYPE" : "Elementary",
		"FACILITYID" : 1001305867,
		"LONGITUDE" : -122.70433562864388,
		"LATITUDE" : 49.110652608805154
	},
	{
		"json_featuretype" : "CSV",
		"LOCATION" : "6151 180 ST",
		"NAME" : "Lord Tweedsmuir Secondary School",
		"FACILITY_TYPE" : "School",
		"WEBLINK" : "https://www.surreyschools.ca/schools/tweeds/Pages/default.aspx",
		"FACILITY_SUBTYPE" : "Secondary",
		"FACILITYID" : 1001307578,
		"LONGITUDE" : -122.72505755225798,
		"LATITUDE" : 49.11475312156617
	},
	{
		"json_featuretype" : "CSV",
		"LOCATION" : "3174 KING GEORGE BLVD",
		"NAME" : "Peace Arch Toyota",
		"FACILITY_TYPE" : "Garbage and Recycling",
		"WEBLINK" : "http://www.peacearchtoyota.com/",
		"FACILITY_SUBTYPE" : "Used Oil",
		"FACILITYID" : 1001312102,
		"LONGITUDE" : -122.81120900613887,
		"LATITUDE" : 49.06066007948799
	},
	{
		"json_featuretype" : "CSV",
		"LOCATION" : "17148 26 AVE",
		"NAME" : "Pacific Heights Elementary School",
		"FACILITY_TYPE" : "School",
		"WEBLINK" : "https://www.surreyschools.ca/schools/pacificheights/Pages/default.aspx",
		"FACILITY_SUBTYPE" : "Elementary",
		"FACILITYID" : 1001306909,
		"LONGITUDE" : -122.74845247471042,
		"LATITUDE" : 49.04841531051108
	},
	{
		"json_featuretype" : "CSV",
		"LOCATION" : "15515 24 AVE",
		"NAME" : "Semiahmoo Bottle Depot",
		"FACILITY_TYPE" : "Garbage and Recycling",
		"WEBLINK" : "https://www.return-it.ca/cfm/index.cfm?It=902&Id=70&SearchID=5E1675D7-300B-41B2-A7918DCB0954BDE3#ID70",
		"FACILITY_SUBTYPE" : "Bottle Depot",
		"FACILITYID" : 1001309806,
		"LONGITUDE" : -122.79277746413926,
		"LATITUDE" : 49.04658126569888
	},
	{
		"json_featuretype" : "CSV",
		"LOCATION" : "7370 KING GEORGE BLVD",
		"NAME" : "Mr. Lube (Newton)",
		"FACILITY_TYPE" : "Garbage and Recycling",
		"WEBLINK" : "http://www.mrlube.com/en/Mr-Lube-Near-You/Locate-a-Mr-Lube/surrey-7030-king-george-highway.aspx?storeid=55&code=pc",
		"FACILITY_SUBTYPE" : "Used Oil",
		"FACILITYID" : 1001309807,
		"LONGITUDE" : -122.84504099970803,
		"LATITUDE" : 49.13022092867838
	},
	{
		"json_featuretype" : "CSV",
		"LOCATION" : "17918 55 AVE",
		"NAME" : "Cloverdale Bottle Depot",
		"FACILITY_TYPE" : "Garbage and Recycling",
		"WEBLINK" : "http://www.return-it.ca/electronics/locations/staples-cloverdale/",
		"FACILITY_SUBTYPE" : "Bottle Depot",
		"FACILITYID" : 1001309669,
		"LONGITUDE" : -122.72627963607103,
		"LATITUDE" : 49.10187458590907
	},
	{
		"json_featuretype" : "CSV",
		"LOCATION" : "8555 142A ST",
		"NAME" : "Brookside Elementary School",
		"FACILITY_TYPE" : "School",
		"WEBLINK" : "https://www.surreyschools.ca/schools/brookside/Pages/default.aspx",
		"FACILITY_SUBTYPE" : "Elementary",
		"FACILITYID" : 1001311774,
		"LONGITUDE" : -122.82850192635978,
		"LATITUDE" : 49.15824274960745
	},
	{
		"json_featuretype" : "CSV",
		"LOCATION" : "14988 57 AVE",
		"NAME" : "Tong Louie Family YMCA",
		"FACILITY_TYPE" : "Recreation Centre",
		"WEBLINK" : "https://gv.ymca.ca/Locations/Surrey/Newton/Tong-Louie-Family-YMCA",
		"FACILITY_SUBTYPE" : "Private",
		"FACILITYID" : 1001311505,
		"LONGITUDE" : -122.8068218488705,
		"LATITUDE" : 49.105205366157485
	},
	{
		"json_featuretype" : "CSV",
		"LOCATION" : "13780 80 AVE",
		"NAME" : "Bear Creek Elementary School",
		"FACILITY_TYPE" : "School",
		"WEBLINK" : "https://www.surreyschools.ca/schools/bearcreek/Pages/default.aspx",
		"FACILITY_SUBTYPE" : "Elementary",
		"FACILITYID" : 1001313031,
		"LONGITUDE" : -122.8403807618775,
		"LATITUDE" : 49.146857889085844
	},
	{
		"json_featuretype" : "CSV",
		"LOCATION" : "16244 13 AVE",
		"NAME" : "South Meridian Elementary School",
		"FACILITY_TYPE" : "School",
		"WEBLINK" : "https://www.surreyschools.ca/schools/southmeridian/Pages/default.aspx",
		"FACILITY_SUBTYPE" : "Elementary",
		"FACILITYID" : 1001313374,
		"LONGITUDE" : -122.77195668488446,
		"LATITUDE" : 49.02564353543671
	},
	{
		"json_featuretype" : "CSV",
		"LOCATION" : "14246 44 AVE",
		"NAME" : "Serpentine Fen",
		"FACILITY_TYPE" : "Attraction",
		"WEBLINK" : "http://www.surrey.ca/culture-recreation/2300.aspx",
		"FACILITY_SUBTYPE" : "",
		"FACILITYID" : 1001314146,
		"LONGITUDE" : -122.82670299100403,
		"LATITUDE" : 49.08172123306438
	},
	{
		"json_featuretype" : "CSV",
		"LOCATION" : "10682 144 ST",
		"NAME" : "Mary Jane Shannon Elementary School",
		"FACILITY_TYPE" : "School",
		"WEBLINK" : "https://www.surreyschools.ca/schools/mjshannon/Pages/default.aspx",
		"FACILITY_SUBTYPE" : "Elementary",
		"FACILITYID" : 1001314944,
		"LONGITUDE" : -122.822247861639,
		"LATITUDE" : 49.19661551185437
	},
	{
		"json_featuretype" : "CSV",
		"LOCATION" : "15225 98 AVE",
		"NAME" : "Mountainview Montessori Elementary School",
		"FACILITY_TYPE" : "School",
		"WEBLINK" : "https://www.surreyschools.ca/schools/mountainview/Pages/default.aspx",
		"FACILITY_SUBTYPE" : "Elementary",
		"FACILITYID" : 1001314522,
		"LONGITUDE" : -122.80002622473397,
		"LATITUDE" : 49.18083369721693
	},
	{
		"json_featuretype" : "CSV",
		"LOCATION" : "9160 128 ST",
		"NAME" : "David Brankin Elementary School",
		"FACILITY_TYPE" : "School",
		"WEBLINK" : "https://www.surreyschools.ca/schools/davidbrankin/Pages/default.aspx",
		"FACILITY_SUBTYPE" : "Elementary",
		"FACILITYID" : 1001314916,
		"LONGITUDE" : -122.86661511460642,
		"LATITUDE" : 49.16929573748865
	},
	{
		"json_featuretype" : "CSV",
		"LOCATION" : "9770 192 ST",
		"NAME" : "Surrey Transfer Station",
		"FACILITY_TYPE" : "Garbage and Recycling",
		"WEBLINK" : "http://www.surrey.ca/city-services/4551.aspx",
		"FACILITY_SUBTYPE" : "Transfer Station",
		"FACILITYID" : 1001318396,
		"LONGITUDE" : -122.68706156856983,
		"LATITUDE" : 49.18050615424851
	},
	{
		"json_featuretype" : "CSV",
		"LOCATION" : "16900 4 AVE",
		"NAME" : "Peace Portal Golf Course",
		"FACILITY_TYPE" : "Golf",
		"WEBLINK" : "http://www.surrey.ca/culture-recreation/7287.aspx",
		"FACILITY_SUBTYPE" : "",
		"FACILITYID" : 1001315956,
		"LONGITUDE" : -122.75301256283763,
		"LATITUDE" : 49.00911460133143
	},
	{
		"json_featuretype" : "CSV",
		"LOCATION" : "18228 68 AVE",
		"NAME" : "Adams Road Elementary School",
		"FACILITY_TYPE" : "School",
		"WEBLINK" : "https://www.surreyschools.ca/schools/adamsroad/Pages/default.aspx",
		"FACILITY_SUBTYPE" : "Elementary",
		"FACILITYID" : 1001316772,
		"LONGITUDE" : -122.71737380517646,
		"LATITUDE" : 49.12509267809072
	},
	{
		"json_featuretype" : "CSV",
		"LOCATION" : "8365 124 AVE",
		"NAME" : "Perfect Auto Repairs",
		"FACILITY_TYPE" : "Garbage and Recycling",
		"WEBLINK" : "",
		"FACILITY_SUBTYPE" : "Used Oil",
		"FACILITYID" : 1001316913,
		"LONGITUDE" : -122.87959597448886,
		"LATITUDE" : 49.15495651214147
	},
	{
		"json_featuretype" : "CSV",
		"LOCATION" : "5950 149 ST",
		"NAME" : "Zion Lutheran Church & School",
		"FACILITY_TYPE" : "School",
		"WEBLINK" : "http://zionlutheran.org",
		"FACILITY_SUBTYPE" : "Private",
		"FACILITYID" : 1001317317,
		"LONGITUDE" : -122.72606025456055,
		"LATITUDE" : 49.11047081616083
	},
	{
		"json_featuretype" : "CSV",
		"LOCATION" : "10730 139 ST",
		"NAME" : "Forsyth Road Elementary School",
		"FACILITY_TYPE" : "School",
		"WEBLINK" : "https://www.surreyschools.ca/schools/forsythroad/Pages/default.aspx",
		"FACILITY_SUBTYPE" : "Elementary",
		"FACILITYID" : 1001316953,
		"LONGITUDE" : -122.83613709007484,
		"LATITUDE" : 49.19744112383192
	},
	{
		"json_featuretype" : "CSV",
		"LOCATION" : "8606 160 ST",
		"NAME" : "Frost Road Elementary School",
		"FACILITY_TYPE" : "School",
		"WEBLINK" : "https://www.surreyschools.ca/schools/frostroad/Pages/default.aspx",
		"FACILITY_SUBTYPE" : "Elementary",
		"FACILITYID" : 1001318359,
		"LONGITUDE" : -122.77204427309987,
		"LATITUDE" : 49.15955371254873
	},
	{
		"json_featuretype" : "CSV",
		"LOCATION" : "6256 184 ST",
		"NAME" : "Don Christian Elementary School",
		"FACILITY_TYPE" : "School",
		"WEBLINK" : "https://www.surreyschools.ca/schools/donchristian/Pages/default.aspx",
		"FACILITY_SUBTYPE" : "Elementary",
		"FACILITYID" : 1001317142,
		"LONGITUDE" : -122.71143895499728,
		"LATITUDE" : 49.116476860459905
	},
	{
		"json_featuretype" : "CSV",
		"LOCATION" : "18620 56 AVE",
		"NAME" : "Diamond Elementary",
		"FACILITY_TYPE" : "School",
		"WEBLINK" : "http://www.relevanthighschool.ca/Diamond_Elementary.html",
		"FACILITY_SUBTYPE" : "Private",
		"FACILITYID" : 1001318362,
		"LONGITUDE" : -122.70688541753536,
		"LATITUDE" : 49.103670114544414
	},
	{
		"json_featuretype" : "CSV",
		"LOCATION" : "18599 65 AVE",
		"NAME" : "Hillcrest Elementary School",
		"FACILITY_TYPE" : "School",
		"WEBLINK" : "https://www.surreyschools.ca/schools/hillcr/Pages/default.aspx",
		"FACILITY_SUBTYPE" : "Elementary",
		"FACILITYID" : 1001315623,
		"LONGITUDE" : -122.70638546375483,
		"LATITUDE" : 49.12130977200576
	},
	{
		"json_featuretype" : "CSV",
		"LOCATION" : "7878 120 ST",
		"NAME" : "Canadian Tire (Scott Rd)",
		"FACILITY_TYPE" : "Garbage and Recycling",
		"WEBLINK" : "http://www.canadiantire.ca/en.html",
		"FACILITY_SUBTYPE" : "Used Oil",
		"FACILITYID" : 1001318632,
		"LONGITUDE" : -122.88912752510578,
		"LATITUDE" : 49.146148360338316
	},
	{
		"json_featuretype" : "CSV",
		"LOCATION" : "14250 100A AVE",
		"NAME" : "Lena Shaw Elementary School",
		"FACILITY_TYPE" : "School",
		"WEBLINK" : "https://www.surreyschools.ca/schools/lenashaw/Pages/default.aspx",
		"FACILITY_SUBTYPE" : "Elementary",
		"FACILITYID" : 1001319711,
		"LONGITUDE" : -122.82749088256432,
		"LATITUDE" : 49.184679720681174
	},
	{
		"json_featuretype" : "CSV",
		"LOCATION" : "18603 60 AVE",
		"NAME" : "Bible Way Christian Academy",
		"FACILITY_TYPE" : "School",
		"WEBLINK" : "http://www.biblewayacademy.org",
		"FACILITY_SUBTYPE" : "Private",
		"FACILITYID" : 1001319857,
		"LONGITUDE" : -122.70647321954416,
		"LATITUDE" : 49.11172559571175
	},
	{
		"json_featuretype" : "CSV",
		"LOCATION" : "17511 59 AVE",
		"NAME" : "Cloverdale Catholic",
		"FACILITY_TYPE" : "School",
		"WEBLINK" : "http://www.ccsunited.ca/",
		"FACILITY_SUBTYPE" : "Private",
		"FACILITYID" : 1001319863,
		"LONGITUDE" : -122.73756330205332,
		"LATITUDE" : 49.109979586102014
	},
	{
		"json_featuretype" : "CSV",
		"LOCATION" : "12530 60 AVE",
		"NAME" : "J.T. Brown Elementary School",
		"FACILITY_TYPE" : "School",
		"WEBLINK" : "https://www.surreyschools.ca/schools/jtbrown/Pages/default.aspx",
		"FACILITY_SUBTYPE" : "Elementary",
		"FACILITYID" : 1001323894,
		"LONGITUDE" : -122.87568894456824,
		"LATITUDE" : 49.11122885414328
	},
	{
		"json_featuretype" : "CSV",
		"LOCATION" : "5811 184 ST",
		"NAME" : "Martha Currie Elementary School",
		"FACILITY_TYPE" : "School",
		"WEBLINK" : "https://www.surreyschools.ca/schools/marthacurrie/Pages/default.aspx",
		"FACILITY_SUBTYPE" : "Elementary",
		"FACILITYID" : 1001324301,
		"LONGITUDE" : -122.71380886007086,
		"LATITUDE" : 49.10807693761223
	},
	{
		"json_featuretype" : "CSV",
		"LOCATION" : " 1785 148 ST",
		"NAME" : "Semiahmoo Secondary School",
		"FACILITY_TYPE" : "School",
		"WEBLINK" : "https://www.surreyschools.ca/schools/semi/Pages/default.aspx",
		"FACILITY_SUBTYPE" : "Secondary",
		"FACILITYID" : 1001322589,
		"LONGITUDE" : -122.81365450112668,
		"LATITUDE" : 49.03489347123546
	},
	{
		"json_featuretype" : "CSV",
		"LOCATION" : "2977 KING GEORGE BLVD",
		"NAME" : "Victory Memorial Park",
		"FACILITY_TYPE" : "Cemetery",
		"WEBLINK" : "http://www.surrey.ca/city-services/2247.aspx",
		"FACILITY_SUBTYPE" : "",
		"FACILITYID" : 1001322885,
		"LONGITUDE" : -122.81115130888307,
		"LATITUDE" : 49.05367875897972
	},
	{
		"json_featuretype" : "CSV",
		"LOCATION" : "18150 8 AVE",
		"NAME" : "Hazelmere Golf & Tennis Club",
		"FACILITY_TYPE" : "Golf",
		"WEBLINK" : "http://www.surrey.ca/culture-recreation/7287.aspx",
		"FACILITY_SUBTYPE" : "",
		"FACILITYID" : 1001322913,
		"LONGITUDE" : -122.72030581363043,
		"LATITUDE" : 49.01556584627304
	},
	{
		"json_featuretype" : "CSV",
		"LOCATION" : "10238 168 ST",
		"NAME" : "Pacific Academy",
		"FACILITY_TYPE" : "School",
		"WEBLINK" : "http://www.pacificacademy.net",
		"FACILITY_SUBTYPE" : "Private",
		"FACILITYID" : 1001321842,
		"LONGITUDE" : -122.75519257595397,
		"LATITUDE" : 49.188846090805754
	},
	{
		"json_featuretype" : "CSV",
		"LOCATION" : "1054 168 ST",
		"NAME" : "Meridian Golf - Par 3",
		"FACILITY_TYPE" : "Golf",
		"WEBLINK" : "http://www.surrey.ca/culture-recreation/7287.aspx",
		"FACILITY_SUBTYPE" : "",
		"FACILITYID" : 1001323150,
		"LONGITUDE" : -122.75637161010069,
		"LATITUDE" : 49.02114735312847
	},
	{
		"json_featuretype" : "CSV",
		"LOCATION" : "10707 146 ST",
		"NAME" : "Guildford Park Secondary School",
		"FACILITY_TYPE" : "School",
		"WEBLINK" : "https://www.surreyschools.ca/schools/guildfordpark/pages/default.aspx",
		"FACILITY_SUBTYPE" : "Secondary",
		"FACILITYID" : 1001318845,
		"LONGITUDE" : -122.81870716081654,
		"LATITUDE" : 49.19697544315279
	},
	{
		"json_featuretype" : "CSV",
		"LOCATION" : "1273 FIR ST, WHITE ROCK",
		"NAME" : "White Rock Elementary School",
		"FACILITY_TYPE" : "School",
		"WEBLINK" : "https://www.surreyschools.ca/schools/whiterockelem/Pages/default.aspx",
		"FACILITY_SUBTYPE" : "Elementary",
		"FACILITYID" : 1001797127,
		"LONGITUDE" : -122.79952559586545,
		"LATITUDE" : 49.025233026501056
	},
	{
		"json_featuretype" : "CSV",
		"LOCATION" : "15877 ROPER AVE, WHITE ROCK",
		"NAME" : "Peace Arch Elementary School",
		"FACILITY_TYPE" : "School",
		"WEBLINK" : "https://www.surreyschools.ca/schools/peacea/Pages/default.aspx",
		"FACILITY_SUBTYPE" : "Elementary",
		"FACILITYID" : 1001797146,
		"LONGITUDE" : -122.78310558003754,
		"LATITUDE" : 49.0261312035966
	},
	{
		"json_featuretype" : "CSV",
		"LOCATION" : "15521 RUSSELL AVE, SURREY",
		"NAME" : "Peace Arch Hospital",
		"FACILITY_TYPE" : "Hospital",
		"WEBLINK" : "http://www.fraserhealth.ca/find_us/locations/our_locations?site_id=1783",
		"FACILITY_SUBTYPE" : "",
		"FACILITYID" : 1001797155,
		"LONGITUDE" : -122.79250574826956,
		"LATITUDE" : 49.03006136391949
	},
	{
		"json_featuretype" : "CSV",
		"LOCATION" : "7170 132 ST",
		"NAME" : "Calvary Christian Academy",
		"FACILITY_TYPE" : "School",
		"WEBLINK" : "",
		"FACILITY_SUBTYPE" : "Private",
		"FACILITYID" : 1001325105,
		"LONGITUDE" : -122.85604836496003,
		"LATITUDE" : 49.1332773688507
	},
	{
		"json_featuretype" : "CSV",
		"LOCATION" : "6999 124 ST",
		"NAME" : "Khalsa School Newton Campus",
		"FACILITY_TYPE" : "School",
		"WEBLINK" : "http://www.khalsaschoolcanada.com",
		"FACILITY_SUBTYPE" : "Private",
		"FACILITYID" : 1001322926,
		"LONGITUDE" : -122.88020279778752,
		"LATITUDE" : 49.12949366308669
	},
	{
		"json_featuretype" : "CSV",
		"LOCATION" : "12550 20 AVE",
		"NAME" : "Ocean Cliff Elementary School",
		"FACILITY_TYPE" : "School",
		"WEBLINK" : "https://www.surreyschools.ca/schools/oceancliff/Pages/default.aspx",
		"FACILITY_SUBTYPE" : "Elementary",
		"FACILITYID" : 1001328540,
		"LONGITUDE" : -122.87530375453896,
		"LATITUDE" : 49.03795894612668
	},
	{
		"json_featuretype" : "CSV",
		"LOCATION" : "8870 120 ST",
		"NAME" : "Kennedy Community Hall",
		"FACILITY_TYPE" : "Community Hall/Centre",
		"WEBLINK" : "http://www.surrey.ca/community/3335.aspx",
		"FACILITY_SUBTYPE" : "",
		"FACILITYID" : 1001328890,
		"LONGITUDE" : -122.88990821167117,
		"LATITUDE" : 49.164420586045274
	},
	{
		"json_featuretype" : "CSV",
		"LOCATION" : "13130 106 AVE",
		"NAME" : "K.B. Woodward Elementary School",
		"FACILITY_TYPE" : "School",
		"WEBLINK" : "https://www.surreyschools.ca/schools/kbwoodward/Pages/default.aspx",
		"FACILITY_SUBTYPE" : "Elementary",
		"FACILITYID" : 1001331034,
		"LONGITUDE" : -122.85877553903202,
		"LATITUDE" : 49.19472950728448
	},
	{
		"json_featuretype" : "CSV",
		"LOCATION" : "7700 168 ST",
		"NAME" : "Surrey Golf Course",
		"FACILITY_TYPE" : "Golf",
		"WEBLINK" : "http://www.surreygolf.com/",
		"FACILITY_SUBTYPE" : "",
		"FACILITYID" : 1001341696,
		"LONGITUDE" : -122.75453264425873,
		"LATITUDE" : 49.14312228808896
	},
	{
		"json_featuretype" : "CSV",
		"LOCATION" : "13460 62 AVE",
		"NAME" : "North Ridge Elementary School",
		"FACILITY_TYPE" : "School",
		"WEBLINK" : "https://www.surreyschools.ca/schools/northridgeelementary/Pages/default.aspx",
		"FACILITY_SUBTYPE" : "Elementary",
		"FACILITYID" : 1001333710,
		"LONGITUDE" : -122.84924257788575,
		"LATITUDE" : 49.11463100320537
	},
	{
		"json_featuretype" : "CSV",
		"LOCATION" : "16299 FRASER HWY",
		"NAME" : "Applewood Motors Inc.",
		"FACILITY_TYPE" : "Garbage and Recycling",
		"WEBLINK" : "http://www.applewoodsurrey.ca/contact-us/",
		"FACILITY_SUBTYPE" : "Used Oil",
		"FACILITYID" : 1001335931,
		"LONGITUDE" : -122.77098996406438,
		"LATITUDE" : 49.15504253040618
	},
	{
		"json_featuretype" : "CSV",
		"LOCATION" : "12834 115A AVE",
		"NAME" : "Bridgeview Elementary School",
		"FACILITY_TYPE" : "School",
		"WEBLINK" : "https://www.surreyschools.ca/schools/bridgeview/Pages/default.aspx",
		"FACILITY_SUBTYPE" : "Elementary",
		"FACILITYID" : 1001335130,
		"LONGITUDE" : -122.86474276620287,
		"LATITUDE" : 49.21124480073559
	},
	{
		"json_featuretype" : "CSV",
		"LOCATION" : "1815 152 ST",
		"NAME" : "S. Surrey RCMP District Office & Semiahmoo Library",
		"FACILITY_TYPE" : "Library",
		"WEBLINK" : "",
		"FACILITY_SUBTYPE" : "",
		"FACILITYID" : 1001335477,
		"LONGITUDE" : -122.801652849557,
		"LATITUDE" : 49.035095371106294
	},
	{
		"json_featuretype" : "CSV",
		"LOCATION" : "12370 98 AVE",
		"NAME" : "Cedar Hills Elementary School",
		"FACILITY_TYPE" : "School",
		"WEBLINK" : "https://www.surreyschools.ca/schools/cedarhill/About/ContactInfo/Pages/default.aspx",
		"FACILITY_SUBTYPE" : "Elementary",
		"FACILITYID" : 1001338933,
		"LONGITUDE" : -122.87973255748943,
		"LATITUDE" : 49.179873460646185
	},
	{
		"json_featuretype" : "CSV",
		"LOCATION" : "15516 36 AVE",
		"NAME" : "Rosemary Heights Elementary School",
		"FACILITY_TYPE" : "School",
		"WEBLINK" : "https://www.surreyschools.ca/schools/rosemaryheights/Pages/default.aspx",
		"FACILITY_SUBTYPE" : "Elementary",
		"FACILITYID" : 1001338954,
		"LONGITUDE" : -122.79260298998786,
		"LATITUDE" : 49.06676407265435
	},
	{
		"json_featuretype" : "CSV",
		"LOCATION" : "",
		"NAME" : "Peace Arch Inn  ( Best Western)",
		"FACILITY_TYPE" : "Hotel",
		"WEBLINK" : "https://www.bestwestern.com/en_US/book/hotel-details.62117.html",
		"FACILITY_SUBTYPE" : "",
		"FACILITYID" : 1001336666,
		"LONGITUDE" : -122.791680544094,
		"LATITUDE" : 49.0433277311228
	},
	{
		"json_featuretype" : "CSV",
		"LOCATION" : "2320 KING GEORGE BLVD",
		"NAME" : "South Surrey / White Rock Learning Centre ",
		"FACILITY_TYPE" : "School",
		"WEBLINK" : "https://www.surreyschools.ca/schools/whiterocklc/Pages/default.aspx",
		"FACILITY_SUBTYPE" : "Administration",
		"FACILITYID" : 1001336667,
		"LONGITUDE" : -122.79096650047521,
		"LATITUDE" : 49.04472978538735
	},
	{
		"json_featuretype" : "CSV",
		"LOCATION" : "",
		"NAME" : "King George Inn & Suites (Best Western)",
		"FACILITY_TYPE" : "Hotel",
		"WEBLINK" : "http://www.bestwesternsurrey.com/",
		"FACILITY_SUBTYPE" : "",
		"FACILITYID" : 1001339677,
		"LONGITUDE" : -122.84655466078901,
		"LATITUDE" : 49.148735175111554
	},
	{
		"json_featuretype" : "CSV",
		"LOCATION" : "2656 160 ST",
		"NAME" : "Southridge Junior School",
		"FACILITY_TYPE" : "School",
		"WEBLINK" : "http://www.southridge.bc.ca",
		"FACILITY_SUBTYPE" : "Private",
		"FACILITYID" : 1001334198,
		"LONGITUDE" : -122.77716097898556,
		"LATITUDE" : 49.05065699876711
	},
	{
		"json_featuretype" : "CSV",
		"LOCATION" : "15945 96 AVE",
		"NAME" : "North Surrey Secondary School",
		"FACILITY_TYPE" : "School",
		"WEBLINK" : "https://www.surreyschools.ca/schools/northsurreysecondary/Pages/default.aspx",
		"FACILITY_SUBTYPE" : "Secondary",
		"FACILITYID" : 1001339482,
		"LONGITUDE" : -122.78029619820865,
		"LATITUDE" : 49.178370340786614
	},
	{
		"json_featuretype" : "CSV",
		"LOCATION" : "3366 156A ST",
		"NAME" : "Morgan Elementary School",
		"FACILITY_TYPE" : "School",
		"WEBLINK" : "https://www.surreyschools.ca/schools/morgan/Pages/default.aspx",
		"FACILITY_SUBTYPE" : "Elementary",
		"FACILITYID" : 1001341239,
		"LONGITUDE" : -122.78780131337268,
		"LATITUDE" : 49.06286435670317
	},
	{
		"json_featuretype" : "CSV",
		"LOCATION" : "15670 104 AVE",
		"NAME" : "Harold Bishop Elementary School",
		"FACILITY_TYPE" : "School",
		"WEBLINK" : "https://www.surreyschools.ca/schools/haroldbishop/Pages/default.aspx",
		"FACILITY_SUBTYPE" : "Elementary",
		"FACILITYID" : 1001342029,
		"LONGITUDE" : -122.78735145169745,
		"LATITUDE" : 49.19079189224739
	},
	{
		"json_featuretype" : "CSV",
		"LOCATION" : "8824 144 ST",
		"NAME" : "Green Timbers Elementary School",
		"FACILITY_TYPE" : "School",
		"WEBLINK" : "https://www.surreyschools.ca/schools/greentimbers/Pages/default.aspx",
		"FACILITY_SUBTYPE" : "Elementary",
		"FACILITYID" : 1001346446,
		"LONGITUDE" : -122.8226322470482,
		"LATITUDE" : 49.16377604441564
	},
	{
		"json_featuretype" : "CSV",
		"LOCATION" : "12772 88 AVE",
		"NAME" : "Invergarry Adult Education Centre",
		"FACILITY_TYPE" : "School",
		"WEBLINK" : "https://www.surreyschools.ca/schools/iaec/Pages/default.aspx",
		"FACILITY_SUBTYPE" : "Adult/Continuing Education",
		"FACILITYID" : 1001343214,
		"LONGITUDE" : -122.86876906375825,
		"LATITUDE" : 49.16207086537384
	},
	{
		"json_featuretype" : "CSV",
		"LOCATION" : "13940 77 AVE",
		"NAME" : "Frank Hurt Secondary School",
		"FACILITY_TYPE" : "School",
		"WEBLINK" : "https://www.surreyschools.ca/schools/frankhurt/Pages/default.aspx",
		"FACILITY_SUBTYPE" : "Secondary",
		"FACILITYID" : 1001233963,
		"LONGITUDE" : -122.83675979385004,
		"LATITUDE" : 49.14195642856257
	},
	{
		"json_featuretype" : "CSV",
		"LOCATION" : "2440 128 ST",
		"NAME" : "Crescent Park Elementary School",
		"FACILITY_TYPE" : "School",
		"WEBLINK" : "https://www.surreyschools.ca/schools/crescentpark/Pages/default.aspx",
		"FACILITY_SUBTYPE" : "Elementary",
		"FACILITYID" : 1001344913,
		"LONGITUDE" : -122.8665763559035,
		"LATITUDE" : 49.046393738378804
	},
	{
		"json_featuretype" : "CSV",
		"LOCATION" : "7027 184 ST",
		"NAME" : "Surrey Little Theatre",
		"FACILITY_TYPE" : "Attraction",
		"WEBLINK" : "http://www.surreylittletheatre.com/Site/Welcome.html",
		"FACILITY_SUBTYPE" : "",
		"FACILITYID" : 1001344712,
		"LONGITUDE" : -122.71287839142954,
		"LATITUDE" : 49.13005475509493
	},
	{
		"json_featuretype" : "CSV",
		"LOCATION" : "5741 176 ST",
		"NAME" : "Cloverdale Learning Centre",
		"FACILITY_TYPE" : "School",
		"WEBLINK" : "",
		"FACILITY_SUBTYPE" : "Adult/Continuing Education",
		"FACILITYID" : 1001346982,
		"LONGITUDE" : -122.73532963054551,
		"LATITUDE" : 49.10665971414412
	},
	{
		"json_featuretype" : "CSV",
		"LOCATION" : "10719 150 ST",
		"NAME" : "Holly Elementary School",
		"FACILITY_TYPE" : "School",
		"WEBLINK" : "https://www.surreyschools.ca/schools/holly/Pages/default.aspx",
		"FACILITY_SUBTYPE" : "Elementary",
		"FACILITYID" : 1001348444,
		"LONGITUDE" : -122.80727805081584,
		"LATITUDE" : 49.197127329379775
	},
	{
		"json_featuretype" : "CSV",
		"LOCATION" : "",
		"NAME" : "Peace Arch Border Crossing (Douglas)",
		"FACILITY_TYPE" : "Other",
		"WEBLINK" : "",
		"FACILITY_SUBTYPE" : "",
		"FACILITYID" : 1001348503,
		"LONGITUDE" : -122.75748260173941,
		"LATITUDE" : 49.00494836646655
	},
	{
		"json_featuretype" : "CSV",
		"LOCATION" : "10153 KING GEORGE BLVD",
		"NAME" : "Central City",
		"FACILITY_TYPE" : "Shopping Centre",
		"WEBLINK" : "http://www.centralcity.ca/contact/",
		"FACILITY_SUBTYPE" : "Private",
		"FACILITYID" : 1001350568,
		"LONGITUDE" : -122.84931440820914,
		"LATITUDE" : 49.18619627715238
	},
	{
		"json_featuretype" : "CSV",
		"LOCATION" : "5500 180 ST",
		"NAME" : "Kwantlen Polytechnic University (Tech Campus)",
		"FACILITY_TYPE" : "School",
		"WEBLINK" : "http://www.kpu.ca/tech",
		"FACILITY_SUBTYPE" : "Post-Secondary",
		"FACILITYID" : 1001348659,
		"LONGITUDE" : -122.72223038315386,
		"LATITUDE" : 49.10311136249301
	},
	{
		"json_featuretype" : "CSV",
		"LOCATION" : "13511 102 AVE",
		"NAME" : "Arts Council of Surrey",
		"FACILITY_TYPE" : "Other",
		"WEBLINK" : "http://www.surrey.ca/youth/132.aspx",
		"FACILITY_SUBTYPE" : "",
		"FACILITYID" : 1001349790,
		"LONGITUDE" : -122.84705211756754,
		"LATITUDE" : 49.188101593673814
	},
	{
		"json_featuretype" : "CSV",
		"LOCATION" : "5640 188 ST",
		"NAME" : "Sunrise Executive Par 3 Golf Course",
		"FACILITY_TYPE" : "Golf",
		"WEBLINK" : "http://www.surrey.ca/culture-recreation/7287.aspx",
		"FACILITY_SUBTYPE" : "",
		"FACILITYID" : 1001349873,
		"LONGITUDE" : -122.70110082629559,
		"LATITUDE" : 49.10509153561935
	},
	{
		"json_featuretype" : "CSV",
		"LOCATION" : "9341 126 ST",
		"NAME" : "Senator Reid Elementary School",
		"FACILITY_TYPE" : "School",
		"WEBLINK" : "https://www.surreyschools.ca/schools/senatorreid/Pages/default.aspx",
		"FACILITY_SUBTYPE" : "Elementary",
		"FACILITYID" : 1001346347,
		"LONGITUDE" : -122.87457080413803,
		"LATITUDE" : 49.172423831475434
	},
	{
		"json_featuretype" : "CSV",
		"LOCATION" : "7541 184 ST",
		"NAME" : "Clayton Elementary School",
		"FACILITY_TYPE" : "School",
		"WEBLINK" : "https://www.surreyschools.ca/schools/clayton/Pages/default.aspx",
		"FACILITY_SUBTYPE" : "Elementary",
		"FACILITYID" : 1001352004,
		"LONGITUDE" : -122.71318702639795,
		"LATITUDE" : 49.13944997603728
	},
	{
		"json_featuretype" : "CSV",
		"LOCATION" : "12666 72 AVE",
		"NAME" : "Kwantlen Polytechnic University (Surrey Campus)",
		"FACILITY_TYPE" : "School",
		"WEBLINK" : "http://www.kpu.ca/surrey",
		"FACILITY_SUBTYPE" : "Post-Secondary",
		"FACILITYID" : 1001349430,
		"LONGITUDE" : -122.87132685675199,
		"LATITUDE" : 49.13258070767424
	},
	{
		"json_featuretype" : "CSV",
		"LOCATION" : "6887 132 ST",
		"NAME" : "cole Gabrielle-Roy",
		"FACILITY_TYPE" : "School",
		"WEBLINK" : "http://gabrielleroy.csf.bc.ca/",
		"FACILITY_SUBTYPE" : "Francophone",
		"FACILITYID" : 1001352177,
		"LONGITUDE" : -122.8582432051849,
		"LATITUDE" : 49.12840029041909
	},
	{
		"json_featuretype" : "CSV",
		"LOCATION" : "14835 108A ST",
		"NAME" : "Riverdale Elementary School",
		"FACILITY_TYPE" : "School",
		"WEBLINK" : "https://www.surreyschools.ca/schools/riverdale/Pages/default.aspx",
		"FACILITY_SUBTYPE" : "Elementary",
		"FACILITYID" : 1001352182,
		"LONGITUDE" : -122.81139420964844,
		"LATITUDE" : 49.20043284999412
	},
	{
		"json_featuretype" : "CSV",
		"LOCATION" : "9761 192 ST",
		"NAME" : "Jobrite New & Used Ford Truck Parts",
		"FACILITY_TYPE" : "Garbage and Recycling",
		"WEBLINK" : "http://surrey.cylex.ca/company/jobrite-new---used-ford-truck-parts-12680546.html",
		"FACILITY_SUBTYPE" : "Used Oil",
		"FACILITYID" : 1001352496,
		"LONGITUDE" : -122.69097174124758,
		"LATITUDE" : 49.1799230431437
	},
	{
		"json_featuretype" : "CSV",
		"LOCATION" : "9380 140 ST",
		"NAME" : "Simon Cunningham Elementary School",
		"FACILITY_TYPE" : "School",
		"WEBLINK" : "https://www.surreyschools.ca/schools/scunningham/Pages/default.aspx",
		"FACILITY_SUBTYPE" : "Elementary",
		"FACILITYID" : 1001353170,
		"LONGITUDE" : -122.83363437082167,
		"LATITUDE" : 49.17296660679727
	},
	{
		"json_featuretype" : "CSV",
		"LOCATION" : "9025  158 ST ",
		"NAME" : "Woodland Park Elementary School",
		"FACILITY_TYPE" : "School",
		"WEBLINK" : "https://www.surreyschools.ca/schools/woodlandpark/Pages/default.aspx",
		"FACILITY_SUBTYPE" : "Elementary",
		"FACILITYID" : 1001349095,
		"LONGITUDE" : -122.78565351765685,
		"LATITUDE" : 49.16718158594112
	},
	{
		"json_featuretype" : "CSV",
		"LOCATION" : "7633 124 ST",
		"NAME" : "Strawberry Hill Elementary School",
		"FACILITY_TYPE" : "School",
		"WEBLINK" : "https://www.surreyschools.ca/schools/princecharles/Pages/default.aspx",
		"FACILITY_SUBTYPE" : "Elementary",
		"FACILITYID" : 1001348728,
		"LONGITUDE" : -122.88003447982051,
		"LATITUDE" : 49.14167088485333
	},
	{
		"json_featuretype" : "CSV",
		"LOCATION" : "10605 CITY PKWY",
		"NAME" : "B.C. Lions Building",
		"FACILITY_TYPE" : "Other",
		"WEBLINK" : "http://www.bclions.com",
		"FACILITY_SUBTYPE" : "",
		"FACILITYID" : 1001355065,
		"LONGITUDE" : -122.84866743534421,
		"LATITUDE" : 49.19560000986885
	},
	{
		"json_featuretype" : "CSV",
		"LOCATION" : "16193 88 AVE",
		"NAME" : "Holy Cross Regional High",
		"FACILITY_TYPE" : "School",
		"WEBLINK" : "http://www.holycross.bc.ca",
		"FACILITY_SUBTYPE" : "Private",
		"FACILITYID" : 1001355392,
		"LONGITUDE" : -122.77523057995785,
		"LATITUDE" : 49.163897055857774
	},
	{
		"json_featuretype" : "CSV",
		"LOCATION" : "19076 88 AVE",
		"NAME" : "Port Kells Elementary School",
		"FACILITY_TYPE" : "School",
		"WEBLINK" : "https://www.surreyschools.ca/schools/portkells/Pages/default.aspx",
		"FACILITY_SUBTYPE" : "Elementary",
		"FACILITYID" : 1001244429,
		"LONGITUDE" : -122.69356916915976,
		"LATITUDE" : 49.16247096980322
	},
	{
		"json_featuretype" : "CSV",
		"LOCATION" : "2064 154 ST",
		"NAME" : "Jessie Lee Elementary School",
		"FACILITY_TYPE" : "School",
		"WEBLINK" : "https://www.surreyschools.ca/schools/jessie/Pages/default.aspx",
		"FACILITY_SUBTYPE" : "Elementary",
		"FACILITYID" : 1001248373,
		"LONGITUDE" : -122.79446800561921,
		"LATITUDE" : 49.03952616658447
	},
	{
		"json_featuretype" : "CSV",
		"LOCATION" : "7676 122 ST",
		"NAME" : "Westerman Elementary School",
		"FACILITY_TYPE" : "School",
		"WEBLINK" : "https://www.surreyschools.ca/schools/westerman/Pages/default.aspx",
		"FACILITY_SUBTYPE" : "Elementary",
		"FACILITYID" : 1001352087,
		"LONGITUDE" : -122.88336339441163,
		"LATITUDE" : 49.14163030518749
	},
	{
		"json_featuretype" : "CSV",
		"LOCATION" : "10025 152 ST",
		"NAME" : "Hallmark Ford Sales Ltd.",
		"FACILITY_TYPE" : "Garbage and Recycling",
		"WEBLINK" : "http://www.hallmarkfordsales.com/",
		"FACILITY_SUBTYPE" : "Used Oil",
		"FACILITYID" : 1001231684,
		"LONGITUDE" : -122.80206360491813,
		"LATITUDE" : 49.18477457396576
	},
	{
		"json_featuretype" : "CSV",
		"LOCATION" : "10677 124 ST",
		"NAME" : "Khalsa School Old Yale Campus",
		"FACILITY_TYPE" : "School",
		"WEBLINK" : "http://www.khalsaschoolcanada.com/default/index.php?pageType=locations",
		"FACILITY_SUBTYPE" : "Private",
		"FACILITYID" : 1001241821,
		"LONGITUDE" : -122.87928557686223,
		"LATITUDE" : 49.19688221201793
	},
	{
		"json_featuretype" : "CSV",
		"LOCATION" : "",
		"NAME" : "Days Inn Surrey",
		"FACILITY_TYPE" : "Hotel",
		"WEBLINK" : "https://www.wyndhamhotels.com/days-inn/surrey-british-columbia/days-inn-surrey/overview",
		"FACILITY_SUBTYPE" : "",
		"FACILITYID" : 1001355500,
		"LONGITUDE" : -122.85096711700358,
		"LATITUDE" : 49.203331060479734
	},
	{
		"json_featuretype" : "CSV",
		"LOCATION" : "14200 GREEN TIMBERS WAY",
		"NAME" : "RCMP \"E\" Division HQ",
		"FACILITY_TYPE" : "RCMP",
		"WEBLINK" : "http://bc.rcmp-grc.gc.ca",
		"FACILITY_SUBTYPE" : "",
		"FACILITYID" : 1001355503,
		"LONGITUDE" : -122.82883691343945,
		"LATITUDE" : 49.18018890415226
	},
	{
		"json_featuretype" : "CSV",
		"LOCATION" : "12600 66 AVE",
		"NAME" : "Tamanawis Secondary School",
		"FACILITY_TYPE" : "School",
		"WEBLINK" : "https://www.surreyschools.ca/schools/tamanawis/Pages/default.aspx",
		"FACILITY_SUBTYPE" : "Secondary",
		"FACILITYID" : 1001245530,
		"LONGITUDE" : -122.87130522074895,
		"LATITUDE" : 49.121955718517086
	},
	{
		"json_featuretype" : "CSV",
		"LOCATION" : "6550 134 ST",
		"NAME" : "Henry Bose Elementary School",
		"FACILITY_TYPE" : "School",
		"WEBLINK" : "https://www.surreyschools.ca/schools/henryb/Pages/default.aspx",
		"FACILITY_SUBTYPE" : "Elementary",
		"FACILITYID" : 1001247155,
		"LONGITUDE" : -122.85029827848693,
		"LATITUDE" : 49.121763373328996
	},
	{
		"json_featuretype" : "CSV",
		"LOCATION" : "13751 112 AVE",
		"NAME" : "James Ardiel Elementary School",
		"FACILITY_TYPE" : "School",
		"WEBLINK" : "https://www.surreyschools.ca/schools/jamesardiel/Pages/default.aspx",
		"FACILITY_SUBTYPE" : "Elementary",
		"FACILITYID" : 1001240971,
		"LONGITUDE" : -122.84092766992256,
		"LATITUDE" : 49.20688441238141
	},
	{
		"json_featuretype" : "CSV",
		"LOCATION" : "7525 KING GEORGE BLVD",
		"NAME" : "English Language Learner Welcome Centre",
		"FACILITY_TYPE" : "School",
		"WEBLINK" : "",
		"FACILITY_SUBTYPE" : "Programs and Services",
		"FACILITYID" : 1001241153,
		"LONGITUDE" : -122.84643947582623,
		"LATITUDE" : 49.13960611111777
	},
	{
		"json_featuretype" : "CSV",
		"LOCATION" : "6380 132 ST",
		"NAME" : "Panorama Ridge Secondary School",
		"FACILITY_TYPE" : "School",
		"WEBLINK" : "https://www.surreyschools.ca/schools/panoramaridge/Pages/default.aspx",
		"FACILITY_SUBTYPE" : "Secondary",
		"FACILITYID" : 1001246708,
		"LONGITUDE" : -122.8550763108488,
		"LATITUDE" : 49.118150598444764
	},
	{
		"json_featuretype" : "CSV",
		"LOCATION" : "14755 74 AVE",
		"NAME" : "Chimney Hill Elementary School",
		"FACILITY_TYPE" : "School",
		"WEBLINK" : "https://www.surreyschools.ca/schools/chimneyhill/Pages/default.aspx",
		"FACILITY_SUBTYPE" : "Elementary",
		"FACILITYID" : 1001237458,
		"LONGITUDE" : -122.81410673315906,
		"LATITUDE" : 49.138184083734714
	},
	{
		"json_featuretype" : "CSV",
		"LOCATION" : "15550 99A AVE",
		"NAME" : "William F. Davidson Elementary School",
		"FACILITY_TYPE" : "School",
		"WEBLINK" : "https://www.surreyschools.ca/schools/wfdavidson/Pages/default.aspx",
		"FACILITY_SUBTYPE" : "Elementary",
		"FACILITYID" : 1001268816,
		"LONGITUDE" : -122.79085650959564,
		"LATITUDE" : 49.18265606977612
	},
	{
		"json_featuretype" : "CSV",
		"LOCATION" : "8962 HOLT (120 ST) RD",
		"NAME" : "Sur-Del Bottle Depot",
		"FACILITY_TYPE" : "Garbage and Recycling",
		"WEBLINK" : "https://www.return-it.ca/locations/sur-del-bottle-depot/",
		"FACILITY_SUBTYPE" : "Bottle Depot",
		"FACILITYID" : 1001257820,
		"LONGITUDE" : -122.88905714258132,
		"LATITUDE" : 49.16621527246349
	},
	{
		"json_featuretype" : "CSV",
		"LOCATION" : "1650 136 ST",
		"NAME" : "Ray Shepherd Elementary School",
		"FACILITY_TYPE" : "School",
		"WEBLINK" : "https://www.surreyschools.ca/schools/rayshepherd/Pages/default.aspx",
		"FACILITY_SUBTYPE" : "Elementary",
		"FACILITYID" : 1001251854,
		"LONGITUDE" : -122.84473461509297,
		"LATITUDE" : 49.031948568963855
	},
	{
		"json_featuretype" : "CSV",
		"LOCATION" : "13104 109 AVE",
		"NAME" : "City Central Learning Centre",
		"FACILITY_TYPE" : "School",
		"WEBLINK" : "https://www.surreyschools.ca/schools/citycentrallc/Pages/default.aspx",
		"FACILITY_SUBTYPE" : "Elementary",
		"FACILITYID" : 1001267188,
		"LONGITUDE" : -122.85861838541221,
		"LATITUDE" : 49.200383942892465
	},
	{
		"json_featuretype" : "CSV",
		"LOCATION" : "15751 16 AVE",
		"NAME" : "Earl Marriott Secondary School",
		"FACILITY_TYPE" : "School",
		"WEBLINK" : "https://www.surreyschools.ca/schools/earlmarriott/Pages/default.aspx",
		"FACILITY_SUBTYPE" : "Secondary",
		"FACILITYID" : 1001270910,
		"LONGITUDE" : -122.785506533987,
		"LATITUDE" : 49.031788154611256
	},
	{
		"json_featuretype" : "CSV",
		"LOCATION" : "16670 OLD MCLELLAN RD",
		"NAME" : "Surrey Centre Elementary School",
		"FACILITY_TYPE" : "School",
		"WEBLINK" : "https://www.surreyschools.ca/schools/surreycentre/Pages/default.aspx",
		"FACILITY_SUBTYPE" : "Elementary",
		"FACILITYID" : 1001295848,
		"LONGITUDE" : -122.75887839111677,
		"LATITUDE" : 49.10969598833701
	},